DATE: MONTH	DATE: DAY	GMT	ALTITUDE (1013)	Inertial Vertical Speed	RADIO ALT	COMPUTED AIR SPD	GROUNDSPEED	 GEAR SELECT DOWN	WOW INDICATE INAIR	WOW INDICATE INAIR	WOW INDICATE INAIR	WOW INDICATE INAIR	WOW INDICATE INAIR	COG NORM ACCEL	COG NORM ACCEL	COG NORM ACCEL	COG NORM ACCEL	COG NORM ACCEL	COG NORM ACCEL	COG NORM ACCEL	COG NORM ACCEL	COG NORM ACCEL	COG NORM ACCEL	PITCH ATT	PITCH ATT	PITCH ATT	PITCH ATT	PITCH ATT	CAP CLM 1 POSN	CAP CLM 1 POSN	CAP CLM 1 POSN	CAP CLM 1 POSN	CAP CLM 1 POSN	ROLL ATT	ROLL ATT	CAP WHL 1 POSN	CAP WHL 1 POSN	CAP WHL 1 POSN	CAP WHL 1 POSN	CAP WHL 1 POSN	N1 SELTED-L	N1 SELTED-R	MAGNETIC HEADING	WIND DIR(ADIRU)	WIND SPD(ADIRU)	A/T ENGAGED	ANY A/P ENGAGED	TRA-L	TRA-L	TRA-R	TRA-R	RUDD POSN	GLIDESLOPE DEV Dots (C)	GLIDESLOPE DEV Dots (L)	GLIDESLOPE DEV Dots (R)	LOCALIZER DEV Dots (C)	LOCALIZER DEV Dots (L)	LOCALIZER DEV Dots (R)	PITCH ATT RATE	DEPARTURE AIRPORT	DESTINATION AIRPORT	PITCH ATT RATE	FMF GROSS WEIGHT
DATECLKMON 	DATECLKDAY 	GMT	ALT 	ZIVV 	GPRA 	CAS 	GNDSPEED 	LGDN	WOWINAIR 	WOWINAIR 	WOWINAIR 	WOWINAIR 	WOWINAIR 	CGBRMACL 	CGBRMACL 	CGBRMACL 	CGBRMACL 	CGBRMACL 	CGBRMACL 	CGBRMACL 	CGBRMACL 	CGBRMACL 	CGBRMACL 	PITCH 	PITCH 	PITCH 	PITCH 	PITCH 	CCOL1POS 	CCOL1POS 	CCOL1POS 	CCOL1POS 	CCOL1POS 	ROLL 	ROLL 	CWHL1POS 	CWHL1POS 	CWHL1POS 	CWHL1POS 	CWHL1POS 	N1.L 	N1.R 	MAGHEADNG 	WINDIRCTRU 	WINDSPEED 	TMATENGD 	APENG 	TRA.L 	TRA.L 	TRA.R 	TRA.R 	RUDPOSN 	GSDEVC	GSDEVL	GSDEVR	LOCDEVC	LOCDEVL	LOCDEVR	PTCHATTRAT 	DEPRTARPT 	DESTARPT 	PTCHATTRAT 	FMFGROSSWT 
months	days	HHMMSS	FT	FT	"FT"" "	KNTS	KNTS	DOWN	TRUE	TRUE	TRUE	TRUE	TRUE	GEES	GEES	GEES	GEES	GEES	GEES	GEES	GEES	GEES	GEES	DEGS	DEGS	DEGS	DEGS	DEGS	IN LVDT	IN LVDT	IN LVDT	IN LVDT	IN LVDT	DEGS	DEGS	IN LVDT	IN LVDT	IN LVDT	IN LVDT	IN LVDT	 	 	DEGS	DEG	KNTS	ENGAGED	ON	DEG	DEG	DEG	DEG	IN	DOT	DOT	DOT	DOT	DOT	DOT	DEG/SEC	 	 	DEG/SEC	KGS
4	8	 6:17:47	154	-8	-8	30	9.75	DOWN	FALSE	FALSE	FALSE	FALSE	FALSE	1	0.9727	0.9805	1	1	1.0039	1.0039	0.9922	0.9883	1.0078	-0.0879	-0.0879	-0.0879	-0.0879	-0.0879	-0.001	-0.001	-0.001	-0.001	-0.001	0.2637	0.2637	0.0104	0.0094	0.0094	0.0104	0.0094	21.4	21.4	359.2	0	0	DISENGD	OFF	33.9258	33.9258	34.0576	34.0576	-0.2617	0.85	1.49	-0.72	2.81	2.76	2.81	0.0625	机场68	机场5	0.0625	252160
4	8	 6:17:48	154	-14	-8	30	10	DOWN	FALSE	FALSE	FALSE	FALSE	FALSE	0.9805	0.9727	1.0273	0.9883	0.9883	1	1.0078	0.9961	1.0039	1.0156	-0.1318	-0.0879	-0.0879	-0.0879	-0.1318	-0.001	-0.001	-0.001	-0.001	-0.001	0.2637	0.2637	0.0104	0.0094	0.0094	0.0104	0.0094	21.3	21.4	359.3	0	0	DISENGD	OFF	33.9258	33.9258	34.0576	34.0576	-0.2598	-0.28	-0.19	0.37	3.14	3.15	3.14	-0.0625	机场68	机场5	-0.0625	252160
4	8	 6:17:49	154	-16	-8	30	10	DOWN	FALSE	FALSE	FALSE	FALSE	FALSE	1	1.0273	0.9844	1.0195	0.9922	0.9844	1.0313	0.9922	0.9961	1.0078	-0.1318	-0.1318	-0.1318	-0.0879	-0.1318	-0.001	-0.001	-0.001	-0.001	-0.001	0.1758	0.1758	0.0094	0.0094	0.0094	0.0094	0.0094	21.3	21.4	359.3	0	0	DISENGD	OFF	33.8818	33.8818	34.0576	34.0576	-0.2598	1.71	1.9	-0.23	3.03	2.95	3.04	-0.0625	机场68	机场5	-0.0625	252160
4	8	 6:17:50	154	-13	-8	30	10.25	DOWN	FALSE	FALSE	FALSE	FALSE	FALSE	0.9922	0.9922	0.9922	0.9844	1.0234	0.9844	1.0313	0.9883	0.9883	0.9648	-0.1318	-0.1318	-0.0879	-0.0879	-0.1318	-0.001	-0.001	-0.001	-0.001	-0.001	0.1758	0.1758	0.0094	0.0094	0.0104	0.0094	0.0094	21.3	21.5	359.3	0	0	DISENGD	OFF	33.8818	33.8379	34.0576	34.0576	-0.2559	0.34	0.96	0.52	2.92	3.03	2.93	-0.0625	机场68	机场5	-0.0625	252160
4	8	 6:17:51	154	-9	-8	30	10.5	DOWN	FALSE	FALSE	FALSE	FALSE	FALSE	0.9766	0.9922	1	0.9727	0.9961	1.0117	1.0117	1.0195	1.0156	1.0078	-0.0879	-0.1318	-0.1318	-0.1318	-0.1318	-0.001	-0.001	-0.001	-0.001	-0.001	0.1758	0.1758	0.0094	0.0104	0.0094	0.0094	0.0094	21.3	21.4	359.3	0	0	DISENGD	OFF	33.8379	33.8379	34.0576	34.0576	-0.2559	1.34	0.84	-0.56	3.7	3.74	3.72	-0.0625	机场68	机场5	-0.0625	252160
4	8	 6:17:52	154	-5	-8	30	10.75	DOWN	FALSE	FALSE	FALSE	FALSE	FALSE	1.0078	0.9844	1.0117	1.0039	0.9805	1	1.0078	1.0117	0.9922	1.0117	-0.1318	-0.1318	-0.0879	-0.0879	-0.0879	-0.001	-0.001	-0.001	-0.001	-0.001	0.1758	0.1758	0.0094	0.0094	0.0094	0.0094	0.0094	21.3	21.5	359.3	0	0	DISENGD	OFF	33.8379	33.8379	34.0576	34.0576	-0.2598	-2.43	-1.58	-0.52	3.94	4.03	3.99	0	机场68	机场5	0	252160
4	8	 6:17:53	154	-1	-8	30	10.75	DOWN	FALSE	FALSE	FALSE	FALSE	FALSE	1	0.9805	0.9609	0.9922	1.0352	0.9766	1.0195	0.9688	1.0195	0.9805	-0.0879	-0.0879	-0.0879	-0.0879	-0.0879	-0.001	-0.001	-0.001	-0.001	-0.001	0.1758	0.1758	0.0094	0.0104	0.0094	0.0094	0.0094	21.2	21.6	359.2	0	0	DISENGD	OFF	33.8379	33.8379	34.0576	34.0576	-0.2598	1.08	1.28	-0.58	3.64	3.66	3.73	-0.125	机场68	机场5	-0.125	252160
4	8	 6:17:54	154	1	-8	30	11	DOWN	FALSE	FALSE	FALSE	FALSE	FALSE	0.9688	0.9883	0.9922	1.0117	1.0039	0.9727	1.0117	1.0117	1.0078	1.0273	-0.0879	-0.0879	-0.0879	-0.0879	-0.0879	-0.001	-0.001	-0.001	-0.0021	-0.001	0.1758	0.1758	0.0094	0.0094	0.0094	0.0094	0.0094	21.3	21.6	359.1	0	0	DISENGD	OFF	33.8379	33.8379	34.0576	34.0576	-0.2598	2.55	2.67	-0.46	3.17	3.22	3.2	0	机场68	机场5	0	252160
4	8	 6:17:55	153	9	-8	30	11.25	DOWN	FALSE	FALSE	FALSE	FALSE	FALSE	0.9648	1.0195	0.9844	1.0234	0.9922	1.0313	0.9727	1.0156	0.9688	0.9883	-0.0879	-0.1318	-0.1318	-0.1318	-0.1318	-0.001	-0.001	-0.001	-0.001	-0.001	0.1758	0.1758	0.0094	0.0094	0.0104	0.0094	0.0094	21.3	21.6	359	0	0	DISENGD	OFF	33.8379	33.8379	34.0576	34.0576	-0.2598	0.26	0.23	0.17	2.98	2.97	2.99	-0.0625	机场68	机场5	-0.0625	252160
4	8	 6:17:56	154	8	-8	30	11.5	DOWN	FALSE	FALSE	FALSE	FALSE	FALSE	0.9922	1	0.9766	1.0117	0.9805	1.0156	1.0039	1	1.0117	0.9727	-0.1318	-0.1318	-0.1318	-0.1758	-0.1758	-0.001	-0.001	-0.001	-0.001	-0.001	0.1758	0.1758	0.0104	0.0094	0.0094	0.0094	0.0104	21.3	21.6	358.9	0	0	DISENGD	OFF	33.8379	33.8379	34.0576	34.0576	-0.2578	1.94	2.22	-1.8	2.88	2.82	2.87	-0.0625	机场68	机场5	-0.0625	252160
4	8	 6:17:57	154	3	-8	30	11.5	DOWN	FALSE	FALSE	FALSE	FALSE	FALSE	1.0078	1	0.9844	1.0195	1.0313	0.9727	0.9648	0.9883	0.9922	1.0117	-0.1758	-0.1758	-0.1758	-0.1758	-0.1758	-0.001	-0.001	-0.001	-0.001	-0.001	0.0879	0.0879	0.0104	0.0104	0.0104	0.0104	0.0094	21.3	21.6	358.9	0	0	DISENGD	OFF	33.8379	33.8379	34.0576	34.0576	-0.2578	0.4	1	-1.21	3.23	3.37	3.23	-0.125	机场68	机场5	-0.125	252160
4	8	 6:17:58	154	-2	-8	30	11.75	DOWN	FALSE	FALSE	FALSE	FALSE	FALSE	1.0234	1.0156	0.9961	1.0078	1.0117	1.0078	0.9922	1.0195	0.9727	0.9805	-0.2197	-0.2197	-0.2197	-0.2197	-0.2197	-0.001	-0.001	-0.001	-0.001	-0.001	0.0879	0.0879	0.0104	0.0104	0.0094	0.0104	0.0104	21.3	21.6	358.8	0	0	DISENGD	OFF	33.8379	33.8379	34.0576	34.0576	-0.2578	3.71	3.2	0.17	2.98	2.84	3.01	-0.125	机场68	机场5	-0.125	252160
4	8	 6:17:59	154	-4	-8	30	12	DOWN	FALSE	FALSE	FALSE	FALSE	FALSE	1.0039	1.0078	1.0078	0.9766	0.9883	1.0039	0.9727	0.9922	1.0117	0.9766	-0.2197	-0.2637	-0.2637	-0.2637	-0.2637	-0.001	-0.001	-0.001	-0.001	-0.001	0	0	0.0104	0.0104	0.0094	0.0104	0.0094	21.3	21.5	358.7	0	0	DISENGD	OFF	33.8818	33.8818	34.0576	34.0576	-0.2578	1.16	1.93	-0.2	3.41	3.39	3.44	-0.125	机场68	机场5	-0.125	252160
4	8	 6:18: 0	154	-5	-8	30	12.25	DOWN	FALSE	FALSE	FALSE	FALSE	FALSE	0.957	0.9961	0.9727	1.0078	0.9883	1.0391	0.9844	0.9883	1	0.9883	-0.2637	-0.2637	-0.2637	-0.2637	-0.2637	-0.001	-0.001	-0.001	-0.001	-0.001	0	-0.0879	0.0104	0.0104	0.0104	0.0104	0.0104	21.3	21.4	358.6	0	0	DISENGD	OFF	33.8818	33.8818	34.0576	34.0576	-0.2617	-1.47	-0.97	1.42	2.67	2.81	2.71	-0.0625	机场68	机场5	-0.0625	252160
4	8	 6:18: 1	154	-4	-8	30	12.5	DOWN	FALSE	FALSE	FALSE	FALSE	FALSE	0.9766	1.0391	0.9883	1.0195	1.0078	1.0469	0.9883	1.0547	1.0195	0.9922	-0.2637	-0.2637	-0.2637	-0.2637	-0.2637	-0.001	-0.001	-0.001	-0.001	-0.001	0.0879	0.0879	0.0104	0.0094	0.0094	0.0094	0.0104	21.3	21.3	358.6	0	0	DISENGD	OFF	33.8818	33.8818	34.0576	34.0576	-0.2617	-0.7	-0.96	0.46	3.44	3.44	3.47	-0.125	机场68	机场5	-0.125	252160
4	8	 6:18: 2	154	-2	-8	30	12.75	DOWN	FALSE	FALSE	FALSE	FALSE	FALSE	0.9883	1.0156	0.9766	1.0117	1	1	1.0039	1.0117	0.957	0.9883	-0.2637	-0.2637	-0.2637	-0.2637	-0.2637	-0.001	-0.001	-0.001	-0.001	-0.001	0.0879	0.0879	0.0094	0.0094	0.0104	0.0094	0.0104	21.3	21.3	358.6	0	0	DISENGD	OFF	33.8818	33.8818	34.0576	34.0576	-0.2617	1.78	1.13	-0.27	3.13	3.19	3.18	0.125	机场68	机场5	0.125	252160
4	8	 6:18: 3	154	-1	-8	30	12.75	DOWN	FALSE	FALSE	FALSE	FALSE	FALSE	1	0.9922	0.9531	0.9922	1.0234	1.0078	1.0156	1.0039	0.9922	1	-0.2637	-0.2637	-0.2197	-0.2197	-0.2197	-0.001	-0.001	-0.001	-0.001	-0.001	0.0879	0.0879	0.0104	0.0094	0.0104	0.0104	0.0104	21.4	21.4	358.7	0	0	DISENGD	OFF	33.8818	33.8818	34.0576	34.0576	-0.2617	0.17	-0.2	0.52	2.87	3.09	2.9	0.0625	机场68	机场5	0.0625	252160
4	8	 6:18: 4	154	0	-8	30	13	DOWN	FALSE	FALSE	FALSE	FALSE	FALSE	0.9844	0.9492	0.9883	1.0391	1.0352	0.9844	1.0391	1.0117	0.9648	1	-0.2197	-0.2197	-0.2197	-0.2197	-0.2197	-0.001	-0.001	-0.001	-0.001	-0.001	0.0879	0.0879	0.0104	0.0104	0.0104	0.0104	0.0094	21.4	21.4	358.7	0	0	DISENGD	OFF	33.8818	33.8818	34.0576	34.0576	-0.2617	0.28	0.79	-0.45	2.94	3.02	2.97	0	机场68	机场5	0	252160
4	8	 6:18: 5	154	0	-8	30	13.25	DOWN	FALSE	FALSE	FALSE	FALSE	FALSE	1.0313	1.0234	0.9844	1.0117	1.0313	1.0039	0.9961	1.0195	0.9883	0.9492	-0.2197	-0.2637	-0.2637	-0.2637	-0.2197	-0.001	-0.001	-0.0021	-0.0021	-0.001	0.0879	0.0879	0.0094	0.0094	0.0104	0.0104	0.0104	21.4	21.4	358.8	0	0	DISENGD	OFF	33.8818	33.8818	34.0576	34.0576	-0.2617	0.85	1.16	-0.51	3.38	3.48	3.38	-0.0625	机场68	机场5	-0.0625	252160
4	8	 6:18: 6	153	8	-8	30	13.5	DOWN	FALSE	FALSE	FALSE	FALSE	FALSE	1.0078	1.0078	0.9648	1.0039	1.0859	0.9688	0.9727	0.9531	0.9531	0.9766	-0.2197	-0.2197	-0.2637	-0.2637	-0.2637	-0.001	-0.001	-0.001	-0.001	-0.001	0.0879	0.0879	0.0104	0.0104	0.0104	0.0104	0.0104	21.4	21.5	358.9	0	0	DISENGD	OFF	33.8818	33.8818	34.0576	34.0576	-0.2598	0.73	1.02	-0.18	2.85	2.83	2.86	-0.1875	机场68	机场5	-0.1875	252160
4	8	 6:18: 7	154	7	-8	30	13.75	DOWN	FALSE	FALSE	FALSE	FALSE	FALSE	1	0.9883	1.0117	1	0.9609	0.9805	1	1.0039	1.0313	1.0195	-0.2197	-0.2637	-0.2637	-0.2637	-0.2637	-0.0021	-0.001	-0.001	-0.001	-0.001	0.0879	0.0879	0.0104	0.0104	0.0104	0.0094	0.0104	21.4	21.5	359	0	0	DISENGD	OFF	33.8818	33.8818	34.0576	34.0576	-0.2598	-0.89	-1.13	1.63	2.74	3.1	2.78	-0.125	机场68	机场5	-0.125	252160
4	8	 6:18: 8	154	2	-8	30	14	DOWN	FALSE	FALSE	FALSE	FALSE	FALSE	1.0117	1.0039	0.9883	1.0234	0.9766	0.9688	1.0078	1.0234	0.9883	1.0156	-0.2637	-0.2637	-0.2637	-0.2637	-0.2637	-0.0021	-0.001	-0.001	-0.001	-0.001	0.0879	0.0879	0.0104	0.0104	0.0104	0.0104	0.0104	21.4	21.5	359.1	0	0	DISENGD	OFF	33.8818	33.8818	34.0576	34.0576	-0.2598	0.36	0.24	-0.18	3.09	3.34	3.12	-0.0625	机场68	机场5	-0.0625	252160
4	8	 6:18: 9	154	-2	-8	30	14	DOWN	FALSE	FALSE	FALSE	FALSE	FALSE	1.0195	1.0156	0.9922	1.0039	0.9844	0.9883	0.9531	1.0078	1.0039	1.0078	-0.2637	-0.2637	-0.2637	-0.2637	-0.2637	-0.001	-0.001	-0.001	-0.001	-0.001	0.0879	0.0879	0.0104	0.0094	0.0104	0.0104	0.0104	21.3	21.4	359.2	0	0	DISENGD	OFF	33.8818	33.8818	34.0576	34.0576	-0.2598	0.33	0.61	0.37	3.71	3.62	3.71	0.125	机场68	机场5	0.125	252160
4	8	 6:18:10	154	-4	-8	30	14.25	DOWN	FALSE	FALSE	FALSE	FALSE	FALSE	0.9805	1	1.0234	1.0547	0.9727	0.9961	0.9922	0.9727	1	1.0039	-0.2637	-0.2637	-0.2637	-0.2637	-0.2637	-0.001	-0.001	-0.001	-0.001	-0.001	0.0879	0.0879	0.0104	0.0104	0.0104	0.0104	0.0104	21.3	21.4	359.3	0	0	DISENGD	OFF	33.8818	33.8818	34.0576	34.0576	-0.2598	1.46	1.31	-0.67	2.74	3.04	2.77	0	机场68	机场5	0	252160
4	8	 6:18:11	154	-4	-8	30	14.5	DOWN	FALSE	FALSE	FALSE	FALSE	FALSE	0.9844	1.0195	0.9844	1.0195	1.0273	1	1.0313	1.0117	0.9727	0.9531	-0.2637	-0.2637	-0.2637	-0.2637	-0.2637	-0.001	-0.001	-0.001	-0.001	-0.001	0.0879	0.0879	0.0104	0.0104	0.0094	0.0104	0.0104	21.3	21.3	359.4	0	0	DISENGD	OFF	33.8818	33.8818	34.0576	34.0576	-0.2598	1.19	0.61	-0.36	3.39	3.4	3.45	-0.0625	机场68	机场5	-0.0625	252160
4	8	 6:18:12	154	-4	-8	30	14.75	DOWN	FALSE	FALSE	FALSE	FALSE	FALSE	0.9766	0.9805	0.9883	0.9883	1	0.9883	1.0156	1.0156	1.0195	1	-0.2637	-0.2637	-0.2637	-0.2637	-0.2637	-0.001	-0.001	-0.001	-0.001	-0.001	0.0879	0.0879	0.0094	0.0094	0.0094	0.0104	0.0104	21.3	21.4	359.5	0	0	DISENGD	OFF	33.8818	33.8818	34.0576	34.0576	-0.2559	3.7	4.54	0.69	2.99	3.14	3.04	0	机场68	机场5	0	252160
4	8	 6:18:13	154	-2	-8	30	15	DOWN	FALSE	FALSE	FALSE	FALSE	FALSE	0.9922	0.9922	0.9883	1.0117	1.0195	1.0195	1.0195	1.0156	0.9688	1	-0.2637	-0.2637	-0.2637	-0.2637	-0.2637	-0.001	-0.001	-0.001	-0.001	-0.001	0.1758	0.0879	0.0094	0.0104	0.0104	0.0094	0.0104	21.3	21.4	359.5	0	0	DISENGD	OFF	33.8818	33.8818	34.0576	34.0576	-0.2559	1.81	2.44	0.69	3.17	3.1	3.2	0.0625	机场68	机场5	0.0625	252160
4	8	 6:18:14	154	-1	-8	30	15.25	DOWN	FALSE	FALSE	FALSE	FALSE	FALSE	0.9922	0.9766	1.0078	0.9922	1.0234	1.0234	1.0117	1.0078	0.9961	1	-0.2637	-0.2637	-0.2637	-0.2197	-0.2197	-0.001	-0.001	-0.001	-0.001	-0.001	0.1758	0.0879	0.0094	0.0094	0.0094	0.0094	0.0094	21.4	21.4	359.4	0	0	DISENGD	OFF	33.8818	33.8818	34.0576	34.0576	-0.2539	2.14	1.8	-0.08	3.64	3.59	3.72	-0.0625	机场68	机场5	-0.0625	252160
4	8	 6:18:15	154	0	-8	30	15.25	DOWN	FALSE	FALSE	FALSE	FALSE	FALSE	1	1	0.9961	1	1.0078	1	1.0313	1.0039	0.9883	0.9922	-0.2637	-0.2637	-0.2637	-0.2637	-0.2637	-0.001	-0.001	-0.001	-0.001	-0.001	0.1758	0.0879	0.0104	0.0094	0.0104	0.0094	0.0094	21.4	21.5	359.3	0	0	DISENGD	OFF	33.8818	33.8818	34.0576	34.0576	-0.2539	-0.33	0.19	0.24	3.57	3.58	3.62	-0.125	机场68	机场5	-0.125	252160
4	8	 6:18:16	153	8	-8	30	15.5	DOWN	FALSE	FALSE	FALSE	FALSE	FALSE	1	1.0117	1.0234	1.0195	1.0469	1.0117	0.9805	0.9922	0.9961	0.9609	-0.2637	-0.2637	-0.3076	-0.3076	-0.3516	-0.001	-0.0021	-0.0021	-0.001	-0.001	0.0879	0.1758	0.0104	0.0104	0.0104	0.0104	0.0094	21.4	21.5	359.1	0	0	DISENGD	OFF	33.8818	33.8818	34.0576	34.0576	-0.252	0.39	1	-0.36	3.48	3.59	3.52	-0.125	机场68	机场5	-0.125	252160
4	8	 6:18:17	154	7	-8	30	14.75	DOWN	FALSE	FALSE	FALSE	FALSE	FALSE	0.9961	0.9844	0.9727	0.9805	1	0.9922	0.9961	0.9922	0.9922	0.9766	-0.3516	-0.3516	-0.3076	-0.3076	-0.3076	-0.001	-0.001	-0.0021	-0.001	-0.001	0.1758	0.1758	0.0104	0.0104	0.0104	0.0104	0.0104	21.4	21.4	358.9	0	0	DISENGD	OFF	33.8818	33.8818	34.0576	34.0576	-0.252	-0.02	0.21	-0.36	3.25	3.41	3.27	-0.0625	机场68	机场5	-0.0625	252160
4	8	 6:18:18	154	2	-8	30	14	DOWN	FALSE	FALSE	FALSE	FALSE	FALSE	0.9648	0.9805	1.0469	1.0391	1.0273	0.9883	1.0195	0.9648	1.0352	1.0273	-0.3076	-0.3076	-0.3076	-0.3076	-0.3516	-0.001	-0.0021	-0.0021	-0.001	-0.001	0.1758	0.1758	0.0104	0.0104	0.0104	0.0104	0.0104	21.4	21.5	358.8	0	0	DISENGD	OFF	33.8818	33.8818	34.0576	34.0576	-0.2578	0.79	0.26	-0.18	3.05	3.24	3.13	0.0625	机场68	机场5	0.0625	252160
4	8	 6:18:19	154	-2	-8	30	13.25	DOWN	FALSE	FALSE	FALSE	FALSE	FALSE	0.9922	0.9844	1.0078	0.9961	0.9883	0.9688	1.043	0.9883	1	0.9805	-0.3516	-0.3516	-0.3516	-0.3516	-0.3516	-0.001	-0.0021	-0.0021	-0.001	-0.001	0.1758	0.1758	0.0104	0.0104	0.0104	0.0104	0.0104	21.4	21.5	358.7	0	0	DISENGD	OFF	33.8818	33.8818	34.0576	34.1016	-0.2578	1.96	2.31	-0.58	3.41	3.57	3.48	-0.0625	机场68	机场5	-0.0625	252160
4	8	 6:18:20	154	-4	-8	30	12.5	DOWN	FALSE	FALSE	FALSE	FALSE	FALSE	1	0.9648	1.0234	0.9961	0.9688	0.9961	1.0117	1.0313	0.9766	0.9922	-0.3076	-0.3076	-0.3076	-0.3076	-0.3516	-0.001	-0.001	-0.0021	-0.001	-0.001	0.1758	0.1758	0.0104	0.0104	0.0104	0.0104	0.0104	21.4	21.5	358.7	0	0	DISENGD	OFF	33.8818	33.8818	34.1016	34.1016	-0.2676	1.41	0.75	-0.5	3.53	3.49	3.53	0.0625	机场68	机场5	0.0625	252160
4	8	 6:18:21	154	-4	-8	30	11.75	DOWN	FALSE	FALSE	FALSE	FALSE	FALSE	0.9883	0.9922	1.0195	0.9961	0.9844	1.0117	1	1.0195	1.0156	0.9844	-0.3516	-0.3516	-0.3516	-0.3516	-0.3516	-0.001	-0.001	-0.001	-0.001	-0.001	0.1758	0.1758	0.0104	0.0104	0.0104	0.0104	0.0104	21.3	21.5	358.7	0	0	DISENGD	OFF	33.8818	33.8818	34.1016	34.1016	-0.2676	1.3	1.83	0.23	3.35	3.41	3.43	-0.0625	机场68	机场5	-0.0625	252160
4	8	 6:18:22	153	4	-8	30	11.75	DOWN	FALSE	FALSE	FALSE	FALSE	FALSE	0.9688	1.0117	0.9766	1.043	1	1.0039	0.9922	0.9922	1.0117	0.9844	-0.3076	-0.3076	-0.3516	-0.3516	-0.3516	-0.001	-0.001	-0.001	-0.0021	-0.001	0	0.0879	0.0104	0.0104	0.0104	0.0104	0.0104	21.3	21.5	358.8	0	0	DISENGD	OFF	33.8818	33.8818	34.1016	34.1016	-0.2695	0.25	0.39	0.14	3.27	3.26	3.38	0	机场68	机场5	0	252160
4	8	 6:18:23	154	4	-8	30	11.75	DOWN	FALSE	FALSE	FALSE	FALSE	FALSE	1	0.9961	1	0.9805	0.9922	1.0039	1.0195	1.0039	0.9961	0.9922	-0.3516	-0.3516	-0.3516	-0.3516	-0.3516	-0.001	-0.001	-0.001	-0.001	-0.001	0.0879	0	0.0104	0.0104	0.0104	0.0104	0.0104	21.3	21.5	358.9	0	0	DISENGD	OFF	33.8818	33.8818	34.1016	34.1016	-0.2695	1.07	0.78	0.21	3.32	3.39	3.34	-0.0625	机场68	机场5	-0.0625	252160
4	8	 6:18:24	154	1	-8	30	11.75	DOWN	FALSE	FALSE	FALSE	FALSE	FALSE	0.9844	1.0078	1	0.9844	0.9961	0.9961	0.9883	0.9766	1.0273	1.0273	-0.3516	-0.3516	-0.3076	-0.3076	-0.3076	-0.001	-0.001	-0.001	-0.001	-0.001	0.1758	0.1758	0.0104	0.0104	0.0104	0.0104	0.0104	21.3	21.4	359	0	0	DISENGD	OFF	33.8818	33.8818	34.1016	34.1016	-0.2344	0.6	0.96	0.2	3.47	3.51	3.49	0.125	机场68	机场5	0.125	252160
4	8	 6:18:25	153	6	-8	30	11.5	DOWN	FALSE	FALSE	FALSE	FALSE	FALSE	0.9844	0.9961	1	0.9883	0.9883	0.9805	0.9883	0.9805	0.9766	1.0313	-0.3076	-0.3076	-0.3076	-0.3076	-0.3076	-0.001	-0.001	-0.001	-0.001	-0.001	0.1758	0.1758	0.0104	0.0104	0.0104	0.0104	0.0104	21.3	21.4	359.1	0	0	DISENGD	OFF	33.8818	33.8818	34.1016	34.1016	-0.2344	1.29	1.26	-0.42	3.22	3.23	3.29	-0.1875	机场68	机场5	-0.1875	252160
4	8	 6:18:26	153	10	-8	30	11.25	DOWN	FALSE	FALSE	FALSE	FALSE	FALSE	0.9844	1.0117	0.9883	1.0508	0.9531	0.9844	1	1.0195	1.0078	0.9922	-0.2637	-0.2637	-0.2637	-0.2637	-0.2637	-0.001	-0.001	-0.001	-0.001	-0.001	0.1758	0.0879	0.0104	0.0104	0.0104	0.0104	0.0104	21.3	21.4	359.1	0	0	DISENGD	OFF	33.8818	33.8818	34.1016	34.1016	-0.2402	0.4	0.62	-0.57	3.44	3.48	3.52	0.0625	机场68	机场5	0.0625	252160
4	8	 6:18:27	154	4	-8	30	11	DOWN	FALSE	FALSE	FALSE	FALSE	FALSE	1.0117	0.9805	0.9961	1.0078	1.0039	0.9844	0.9883	0.9922	1.0195	0.9922	-0.2637	-0.2637	-0.3076	-0.3076	-0.3076	-0.001	-0.001	-0.001	-0.001	-0.001	0.1758	0.1758	0.0104	0.0104	0.0104	0.0104	0.0104	21.3	21.4	359	0	0	DISENGD	OFF	33.8818	33.8818	34.1016	34.1016	-0.2402	-0.5	-0.48	-0.56	3.38	3.39	3.49	-0.125	机场68	机场5	-0.125	252160
4	8	 6:18:28	153	4	-8	30	10.5	DOWN	FALSE	FALSE	FALSE	FALSE	FALSE	0.9883	1.0039	0.9844	1.0273	1.0078	1.0078	0.9883	1.0352	0.9844	1	-0.3076	-0.3076	-0.3076	-0.3076	-0.3076	-0.001	-0.001	-0.001	-0.001	-0.001	0.1758	0.1758	0.0104	0.0104	0.0104	0.0104	0.0104	21.3	21.4	358.9	0	0	DISENGD	OFF	33.8818	33.8818	34.1016	34.1016	-0.2598	-0.23	-0.75	-0.08	3.42	3.37	3.51	0	机场68	机场5	0	252160
4	8	 6:18:29	153	6	-8	30	10.25	DOWN	FALSE	FALSE	FALSE	FALSE	FALSE	0.9766	0.9805	1.0273	1.0078	0.9648	0.9961	1.0195	1.0117	0.9922	1.0039	-0.3076	-0.3076	-0.3076	-0.3516	-0.3516	-0.001	-0.001	-0.0021	-0.001	-0.001	0.0879	0.0879	0.0104	0.0104	0.0104	0.0104	0.0104	21.3	21.4	358.9	0	0	DISENGD	OFF	33.8818	33.8818	34.1016	34.1016	-0.2598	0.17	0.34	-0.23	3.53	3.57	3.61	0	机场68	机场5	0	252160
4	8	 6:18:30	153	6	-8	30	10	DOWN	FALSE	FALSE	FALSE	FALSE	FALSE	1.0117	1	0.9961	0.9766	1.0156	1.0273	1.0391	0.9961	0.9922	0.9805	-0.3516	-0.3516	-0.3516	-0.3516	-0.3516	-0.001	-0.001	-0.001	-0.001	-0.001	0.0879	0.0879	0.0104	0.0104	0.0104	0.0104	0.0104	21.3	21.4	358.9	0	0	DISENGD	OFF	33.8818	33.8818	34.1016	34.1016	-0.2617	1.47	0.91	-0.11	3.4	3.36	3.49	0	机场68	机场5	0	252160
4	8	 6:18:31	153	5	-8	30	9.5	DOWN	FALSE	FALSE	FALSE	FALSE	FALSE	1.0195	0.9961	0.9922	0.9883	0.9805	1	0.9844	1	1	1	-0.3516	-0.3516	-0.3516	-0.3516	-0.3516	-0.0021	-0.001	-0.001	-0.001	-0.001	0.0879	0.0879	0.0104	0.0104	0.0104	0.0104	0.0104	21.4	21.3	358.9	0	0	DISENGD	OFF	33.8818	33.8818	34.1016	34.1016	-0.2617	-0.02	0.24	-0.78	3.13	3.16	3.23	0	机场68	机场5	0	252160
4	8	 6:18:32	153	4	-8	30	8.75	DOWN	FALSE	FALSE	FALSE	FALSE	FALSE	0.9961	0.9961	0.9766	0.9688	1.0313	1.0117	1.0078	0.9844	1	0.9961	-0.3955	-0.3955	-0.3955	-0.3955	-0.3955	-0.001	-0.001	-0.001	-0.001	-0.001	0.0879	0.0879	0.0104	0.0104	0.0104	0.0104	0.0104	21.4	21.3	358.9	0	0	DISENGD	OFF	33.8818	33.8818	34.0576	34.0576	-0.2617	-0.52	-0.64	-1.44	3.31	3.31	3.4	-0.0625	机场68	机场5	-0.0625	252160
4	8	 6:18:33	153	2	-8	30	8.75	DOWN	FALSE	FALSE	FALSE	FALSE	FALSE	1	0.9961	1	0.9922	1.0117	1.0234	0.9961	0.9805	0.9922	0.9727	-0.3955	-0.3516	-0.3516	-0.3516	-0.3516	-0.001	-0.001	-0.0021	-0.0021	-0.001	0.0879	0.0879	0.0104	0.0104	0.0104	0.0104	0.0104	21.4	21.3	359	0	0	DISENGD	OFF	33.8818	33.8818	34.0576	34.0576	-0.2617	-0.6	-0.42	0.21	3.5	3.49	3.56	-0.0625	机场68	机场5	-0.0625	252160
4	8	 6:18:34	153	1	-8	30	8.5	DOWN	FALSE	FALSE	FALSE	FALSE	FALSE	0.9883	1.0078	0.9922	1.0195	1.0078	0.9883	0.9883	0.9922	1.0117	1.0039	-0.3516	-0.3516	-0.3516	-0.3516	-0.3516	-0.001	-0.001	-0.001	-0.001	-0.001	0.0879	0.0879	0.0104	0.0104	0.0104	0.0104	0.0104	21.4	21.3	359.1	0	0	DISENGD	OFF	33.8818	33.8818	34.0576	34.0576	-0.2559	-0.34	-0.46	0.16	3.28	3.23	3.35	-0.0625	机场68	机场5	-0.0625	252160
4	8	 6:18:35	153	0	-8	30	8.5	DOWN	FALSE	FALSE	FALSE	FALSE	FALSE	0.9805	1	0.9961	1.0078	1	1.0078	0.9766	1	1.0039	0.9922	-0.3516	-0.3516	-0.3516	-0.3516	-0.3516	-0.001	-0.0021	-0.0021	-0.001	-0.001	0.0879	0.1758	0.0104	0.0104	0.0104	0.0104	0.0104	21.4	21.3	359.1	0	0	DISENGD	OFF	33.8818	33.8818	34.0576	34.0576	-0.2559	-1.03	-0.47	-0.93	3.28	3.19	3.36	-0.0625	机场68	机场5	-0.0625	252160
4	8	 6:18:36	153	-1	-8	30	8.25	DOWN	FALSE	FALSE	FALSE	FALSE	FALSE	1.0313	1.0156	0.9922	0.9648	0.9766	0.9844	1.0117	1.0078	0.918	1.0117	-0.3076	-0.3076	-0.3076	-0.3076	-0.3076	-0.001	-0.001	-0.001	-0.001	-0.001	0.0879	0.0879	0.0094	0.0094	0.0104	0.0104	0.0104	21.4	21.3	358.8	0	0	DISENGD	OFF	33.8818	33.8818	34.0576	34.0576	-0.2539	0.1	0.35	0.63	3.33	3.3	3.42	0.0625	机场68	机场5	0.0625	252160
4	8	 6:18:37	153	-1	-8	30	8.5	DOWN	FALSE	FALSE	FALSE	FALSE	FALSE	0.9922	0.9531	0.9844	0.9883	1.0117	0.9922	1.0078	0.9844	1	1	-0.3076	-0.3076	-0.3076	-0.3076	-0.3076	-0.001	-0.001	-0.001	-0.001	-0.001	0.0879	0.0879	0.0094	0.0094	0.0094	0.0094	0.0094	21.4	21.4	358.2	0	0	DISENGD	OFF	33.8818	33.8818	34.0576	34.0576	-0.2539	1.13	1.21	0.33	3.51	3.41	3.58	0.0625	机场68	机场5	0.0625	252160
4	8	 6:18:38	153	0	-8	30	8.5	DOWN	FALSE	FALSE	FALSE	FALSE	FALSE	0.9883	0.9727	0.9922	1.0273	1.0117	0.9727	0.9922	0.9688	1.0391	0.9922	-0.3076	-0.3076	-0.3076	-0.3076	-0.3076	-0.001	-0.001	-0.001	-0.001	-0.001	0.0879	0.0879	0.0094	0.0094	0.0094	0.0094	0.0094	21.4	21.4	357.3	0	0	DISENGD	OFF	33.8818	33.8818	34.0576	34.0576	-0.252	0.69	0.82	0.19	3.7	3.64	3.79	-0.1875	机场68	机场5	-0.1875	252160
4	8	 6:18:39	153	0	-8	30	8.75	DOWN	FALSE	FALSE	FALSE	FALSE	FALSE	0.9883	1.0039	1.0195	1.0117	0.9922	1.0039	0.9844	1.0273	1	0.9922	-0.3076	-0.3516	-0.3516	-0.3516	-0.3516	-0.001	-0.001	-0.001	-0.001	-0.001	0.0879	0.0879	0.0094	0.0094	0.0094	0.0094	0.0094	21.4	21.4	355.4	0	0	DISENGD	OFF	33.8818	33.8818	34.0576	34.0576	-0.252	-0.53	-0.68	-0.06	3.54	3.5	3.61	0	机场68	机场5	0	252160
4	8	 6:18:40	153	0	-8	30	9.25	DOWN	FALSE	FALSE	FALSE	FALSE	FALSE	1.0039	1.0078	0.9727	0.9844	1.0195	1.0078	0.9922	0.9805	1.0117	0.9805	-0.3516	-0.3516	-0.3516	-0.3955	-0.3955	-0.001	-0.001	-0.001	-0.001	-0.001	0.0879	0.0879	0.0094	0.0094	0.0094	0.0094	0.0094	21.5	21.4	352.8	0	0	DISENGD	OFF	33.8818	33.8818	34.0576	34.0576	-0.2539	-1.26	-2.09	0.08	3.31	3.38	3.38	-0.0625	机场68	机场5	-0.0625	252160
4	8	 6:18:41	153	0	-8	30	9.25	DOWN	FALSE	FALSE	FALSE	FALSE	FALSE	0.9961	1.0039	1.0117	1	1.0078	0.9883	1.0039	0.9844	0.9922	1.0117	-0.3955	-0.3955	-0.3955	-0.3955	-0.3955	-0.001	-0.001	-0.001	-0.0021	-0.001	0	0	0.0094	0.0094	0.0094	0.0094	0.0094	21.4	21.4	349.5	0	0	DISENGD	OFF	33.8818	33.8818	34.0576	34.0576	-0.2539	0.34	0.16	-0.32	3.93	3.98	3.98	-0.125	机场68	机场5	-0.125	252160
4	8	 6:18:42	153	0	-8	30	8.75	DOWN	FALSE	FALSE	FALSE	FALSE	FALSE	0.9961	1.0078	1.0078	1	0.9961	0.9883	0.9961	1.0039	0.9961	0.9844	-0.3955	-0.3955	-0.3955	-0.3955	-0.3955	-0.0021	-0.0021	-0.001	-0.001	-0.001	-0.0879	-0.0879	0.0094	0.0094	0.0094	0.0094	0.0094	21.4	21.4	345.7	0	0	DISENGD	OFF	33.8818	33.8818	34.0576	34.0576	-0.25	-0.31	-0.31	-0.13	3.37	3.43	3.43	0	机场68	机场5	0	252160
4	8	 6:18:43	153	0	-8	30	8.25	DOWN	FALSE	FALSE	FALSE	FALSE	FALSE	1.0078	0.9844	0.9727	0.9961	1.0039	1.0156	0.9961	0.9961	0.9727	0.9961	-0.3955	-0.3955	-0.3955	-0.3516	-0.3955	-0.001	-0.001	-0.001	-0.001	-0.0021	-0.2637	-0.1758	0.0094	0.0094	0.0094	0.0094	0.0094	21.4	21.5	341.4	0	0	DISENGD	OFF	33.8818	33.8818	34.0576	34.0576	-0.25	0.74	1.37	-0.32	3.51	3.47	3.59	0	机场68	机场5	0	252160
4	8	 6:18:44	152	8	-8	30	8.25	DOWN	FALSE	FALSE	FALSE	FALSE	FALSE	0.9609	0.9727	1	1.0234	0.9766	0.9688	1.0078	1.0156	1.0234	1.0039	-0.3955	-0.3955	-0.3955	-0.4395	-0.4395	-0.001	-0.001	-0.001	-0.001	-0.001	-0.3516	-0.2637	0.0094	0.0094	0.0094	0.0094	0.0094	21.4	21.5	337.1	0	0	DISENGD	OFF	33.8818	33.8818	34.0576	34.0576	-0.252	0.75	0.47	0	3.74	3.68	3.83	-0.125	机场68	机场5	-0.125	252160
4	8	 6:18:45	152	14	-8	30	8.75	DOWN	FALSE	FALSE	FALSE	FALSE	FALSE	0.9844	0.9961	0.9961	0.9805	1.0273	1.0156	1.0195	1.0039	1.0078	0.9688	-0.4395	-0.4395	-0.4395	-0.4395	-0.4395	-0.001	-0.001	-0.001	-0.001	-0.001	-0.3516	-0.3516	0.0094	0.0094	0.0094	0.0094	0.0094	21.4	21.5	332.3	0	0	DISENGD	OFF	33.8818	33.8818	34.0576	34.0576	-0.252	-1.37	-1.29	-0.58	3.22	3.1	3.35	0	机场68	机场5	0	252160
4	8	 6:18:46	152	15	-8	30	9	DOWN	FALSE	FALSE	FALSE	FALSE	FALSE	0.9961	0.9766	0.9883	1.0313	1.0195	1.0313	0.9961	0.9883	0.9922	0.9883	-0.4395	-0.4395	-0.4395	-0.4395	-0.4395	-0.0021	-0.001	-0.001	-0.001	-0.001	-0.3516	-0.3516	0.0094	0.0094	0.0094	0.0094	0.0094	21.4	21.5	327.3	0	0	DISENGD	OFF	33.8818	33.8818	34.0576	34.0576	-0.2422	0.03	0.5	-0.2	3.5	3.47	3.67	0.0625	机场68	机场5	0.0625	252160
4	8	 6:18:47	152	13	-8	30	9.25	DOWN	FALSE	FALSE	FALSE	FALSE	FALSE	0.9922	1.0078	0.9922	0.9805	0.9883	1.0234	0.9922	1.0156	1	0.9766	-0.4395	-0.4395	-0.4395	-0.4395	-0.4395	-0.0021	-0.001	-0.001	-0.001	-0.001	-0.2637	-0.3516	0.0094	0.0094	0.0094	0.0094	0.0094	21.4	21.5	321.9	0	0	DISENGD	OFF	33.8818	33.8818	34.0576	34.0576	-0.2422	-1.65	-1.81	-0.21	3.47	3.6	3.59	0.0625	机场68	机场5	0.0625	252160
4	8	 6:18:48	152	9	-8	30	9.25	DOWN	FALSE	FALSE	FALSE	FALSE	FALSE	1.0234	0.9766	0.9688	0.9883	1.0313	1	0.9961	1.0039	1.0078	1	-0.4834	-0.4834	-0.4834	-0.4834	-0.4834	-0.001	-0.001	-0.001	-0.001	-0.001	-0.1758	-0.2637	0.0094	0.0094	0.0094	0.0094	0.0094	21.5	21.5	316.3	0	0	DISENGD	OFF	33.9258	33.9258	34.0576	34.0576	-0.2441	1.31	1.17	0.06	3.73	3.15	3.89	-0.0625	机场68	机场5	-0.0625	252160
4	8	 6:18:49	152	5	-8	30	9	DOWN	FALSE	FALSE	FALSE	FALSE	FALSE	1.0117	0.9766	0.9844	0.9883	1.0117	1.0039	0.9844	0.9961	1.0273	1	-0.4834	-0.4834	-0.4834	-0.4834	-0.4834	-0.001	-0.001	-0.0021	-0.001	-0.001	-0.2637	-0.2637	0.0094	0.0094	0.0094	0.0094	0.0094	21.5	21.6	310.5	0	0	DISENGD	OFF	33.9258	33.9258	34.0576	34.0576	-0.2441	-1.59	-0.42	-0.68	3.34	2.29	3.64	-0.0625	机场68	机场5	-0.0625	252160
4	8	 6:18:50	152	1	-8	30	9	DOWN	FALSE	FALSE	FALSE	FALSE	FALSE	1	1	1.0273	1.0078	0.9922	1.0156	0.9766	1.0391	0.9922	0.9922	-0.4834	-0.4834	-0.4834	-0.4834	-0.4834	-0.001	-0.0021	-0.001	-0.0021	-0.0021	-0.2637	-0.2637	0.0094	0.0094	0.0094	0.0094	0.0094	21.6	21.5	304.6	0	0	DISENGD	OFF	33.9258	33.9258	34.0576	34.0576	-0.2422	-2.72	-3.05	-0.15	3.86	3.14	3.94	0.0625	机场68	机场5	0.0625	252160
4	8	 6:18:51	152	-1	-8	30	9.25	DOWN	FALSE	FALSE	FALSE	FALSE	FALSE	0.9805	0.9844	0.9961	0.957	1.0313	1.0352	1.0313	0.9727	0.9922	0.9805	-0.5273	-0.4834	-0.5273	-0.4834	-0.4834	-0.001	-0.001	-0.001	-0.001	-0.001	-0.1758	-0.1758	0.0094	0.0094	0.0094	0.0094	0.0094	21.6	21.4	298.5	0	0	DISENGD	OFF	33.9258	33.9258	34.0576	34.0576	-0.2422	-1.67	-1.08	-0.32	3.47	3.97	3.44	0.125	机场68	机场5	0.125	252160
4	8	 6:18:52	152	-2	-8	30	9.25	DOWN	FALSE	FALSE	FALSE	FALSE	FALSE	0.9883	0.9883	1	0.9883	1.0078	1.0156	1.0078	1.0039	1.0039	0.9844	-0.4834	-0.4834	-0.4834	-0.4395	-0.4395	-0.001	-0.001	-0.0021	-0.0021	-0.001	0	-0.0879	0.0094	0.0094	0.0094	0.0094	0.0094	21.7	21.4	292.4	0	0	DISENGD	OFF	33.8818	33.8818	34.0576	34.0576	-0.2441	1.96	1.21	-0.1	4.61	4.64	4.64	0	机场68	机场5	0	252160
4	8	 6:18:53	152	-2	-8	30	9.25	DOWN	FALSE	FALSE	FALSE	FALSE	FALSE	0.9883	0.9766	0.9922	1	1	0.9961	0.9883	1.0117	1.0039	0.9883	-0.4395	-0.3955	-0.3955	-0.3516	-0.3516	-0.001	-0.001	-0.001	-0.0021	-0.001	0	0	0.0094	0.0104	0.0104	0.0104	0.0104	21.6	21.4	286.6	0	0	DISENGD	OFF	33.8818	33.8818	34.0576	34.0576	-0.2441	0.73	0.24	-0.71	4.84	4.93	4.89	0	机场68	机场5	0	252160
4	8	 6:18:54	151	7	-8	30	9.25	DOWN	FALSE	FALSE	FALSE	FALSE	FALSE	0.9844	1	0.9922	0.9961	0.9961	1	1.0039	1.0156	0.9844	1.0078	-0.3516	-0.3076	-0.3076	-0.2637	-0.2637	-0.001	-0.001	-0.0021	-0.001	-0.001	0.0879	0.0879	0.0104	0.0104	0.0104	0.0104	0.0094	21.5	21.3	281.4	0	0	DISENGD	OFF	33.8818	33.8818	34.0576	34.0576	-0.25	-1.66	-0.71	-0.19	4.44	4.37	4.46	0.0625	机场68	机场5	0.0625	252160
4	8	 6:18:55	152	6	-8	30	9	DOWN	FALSE	FALSE	FALSE	FALSE	FALSE	1.0039	0.9648	0.9922	0.9961	1.0313	1.0273	1	1.0039	1	0.9883	-0.2637	-0.2197	-0.2197	-0.1758	-0.1758	-0.001	-0.001	-0.001	-0.001	-0.001	0.1758	0.1758	0.0104	0.0104	0.0104	0.0104	0.0104	21.5	21.4	276.9	0	0	DISENGD	OFF	33.8818	33.8818	34.0576	34.0576	-0.25	-2.12	-3.04	-0.36	4.14	3.86	4.37	0.125	机场68	机场5	0.125	252160
4	8	 6:18:56	151	9	-8	30	9	DOWN	FALSE	FALSE	FALSE	FALSE	FALSE	0.9844	1.0234	1.0117	1.0313	1.0039	0.9883	0.9688	1.0078	0.9883	0.9961	-0.1758	-0.1758	-0.1758	-0.1318	-0.1318	-0.001	-0.0021	-0.0021	-0.001	-0.001	0.2637	0.2637	0.0104	0.0104	0.0104	0.0104	0.0104	21.4	21.3	273.6	0	0	DISENGD	OFF	33.8818	33.8379	34.0576	34.0576	-0.25	-1.76	-0.68	0.34	1.73	1.86	1.82	-0.1875	机场68	机场5	-0.1875	252160
4	8	 6:18:57	152	4	-8	30	9	DOWN	FALSE	FALSE	FALSE	FALSE	FALSE	1.0156	0.9961	1	0.957	1.0469	1.0273	1.0273	0.9805	1.0352	0.9531	-0.0879	-0.0439	-0.0439	0	0	-0.001	-0.001	-0.001	-0.001	-0.001	0.2637	0.1758	0.0104	0.0104	0.0104	0.0104	0.0104	21.4	21.3	271.2	0	0	DISENGD	OFF	33.8379	33.8379	34.0576	34.0576	-0.25	-3.23	-2.99	-0.2	5.16	5.08	5.16	0.0625	机场68	机场5	0.0625	252160
4	8	 6:18:58	153	-10	-8	30	9.25	DOWN	FALSE	FALSE	FALSE	FALSE	FALSE	0.9883	1	1.0234	1.0117	1.0078	1.0156	0.9922	1	0.9844	1.0234	0	0	0	0.0439	0.0439	-0.001	-0.001	-0.001	-0.001	-0.001	0.3516	0.2637	0.0104	0.0104	0.0104	0.0104	0.0104	21.4	21.1	269.8	0	0	DISENGD	OFF	33.8379	33.8379	34.0576	34.0576	-0.252	-0.85	-1.87	0.82	3.03	3.59	3.13	-0.0625	机场68	机场5	-0.0625	252160
4	8	 6:18:59	153	-20	-8	30	9.25	DOWN	FALSE	FALSE	FALSE	FALSE	FALSE	0.9883	0.9805	1.0078	1	0.9805	1.0156	1.0195	1.0078	1	0.9688	0.0439	0.0439	0.0439	0.0439	0.0439	-0.001	-0.001	-0.001	-0.001	-0.001	0.2637	0.2637	0.0104	0.0104	0.0104	0.0104	0.0104	21.4	21.1	269.1	0	0	DISENGD	OFF	33.8379	33.8379	34.0576	34.0576	-0.252	1.17	0.76	-0.29	1.65	1.91	1.59	0.0625	机场68	机场5	0.0625	252160
4	8	 6:19: 0	153	-23	-8	30	9	DOWN	FALSE	FALSE	FALSE	FALSE	FALSE	1.0156	1	0.9922	1.0078	0.9961	0.9883	0.9961	1.0195	0.9961	0.9922	0.0879	0.0879	0.0879	0.0879	0.0879	-0.001	-0.001	-0.0021	-0.0021	-0.001	0.3516	0.2637	0.0104	0.0104	0.0104	0.0104	0.0104	21.3	21.1	268.9	0	0	DISENGD	OFF	33.8379	33.8379	34.0576	34.0576	-0.2539	-2.08	-2.03	0.56	1.94	2.33	2	0.0625	机场68	机场5	0.0625	252160
4	8	 6:19: 1	153	-20	-8	30	9	DOWN	FALSE	FALSE	FALSE	FALSE	FALSE	0.9727	1.0234	1.0039	0.9844	0.9961	0.9844	1.0664	0.9883	0.9961	1.0195	0.0879	0.0879	0.0879	0.0439	0.0439	-0.001	-0.001	-0.001	-0.001	-0.001	0.3516	0.3516	0.0104	0.0104	0.0104	0.0104	0.0104	21.4	21.1	268.7	0	0	DISENGD	OFF	33.8818	33.8818	34.0576	34.0576	-0.2539	-1.86	-1.58	1.31	3.34	3.78	3.48	-0.0625	机场68	机场5	-0.0625	252160
4	8	 6:19: 2	153	-13	-8	30	9	DOWN	FALSE	FALSE	FALSE	FALSE	FALSE	1.043	1.0117	1	0.9688	1.0078	0.9805	1	1.0039	1	0.9883	0	0	0	-0.0439	-0.0439	-0.0021	-0.0021	-0.0021	-0.0021	-0.001	0.3516	0.3516	0.0104	0.0104	0.0104	0.0104	0.0104	21.4	21.3	268.6	0	0	DISENGD	OFF	33.8818	33.8818	34.0576	34.0576	-0.2559	-2.72	-2.65	0.34	4.14	4.15	4.34	-0.25	机场68	机场5	-0.25	252160
4	8	 6:19: 3	154	-14	-8	30	8.75	DOWN	FALSE	FALSE	FALSE	FALSE	FALSE	1	0.9766	0.9961	1.0313	0.9883	0.9727	0.9727	1.0156	1	1.043	-0.0879	-0.0879	-0.0879	-0.1318	-0.1318	-0.001	-0.001	-0.001	-0.001	-0.001	0.3516	0.3516	0.0104	0.0104	0.0104	0.0104	0.0104	21.4	21.3	268.7	0	0	DISENGD	OFF	33.8818	33.8818	34.0576	34.0576	-0.2559	0.75	1.19	0.54	5.16	5.16	5.16	-0.125	机场68	机场5	-0.125	252160
4	8	 6:19: 4	154	-15	-8	30	8.75	DOWN	FALSE	FALSE	FALSE	FALSE	FALSE	0.9883	1.0234	1.0234	1.0234	0.957	0.9492	1.0195	0.9883	1.0156	1.0391	-0.1318	-0.1318	-0.1758	-0.1758	-0.2197	-0.001	-0.001	-0.001	-0.001	-0.001	0.3516	0.3516	0.0104	0.0104	0.0104	0.0104	0.0104	21.4	21.4	268.7	0	0	DISENGD	OFF	33.8818	33.8818	34.0576	34.0576	-0.2578	2.06	0.89	1.92	3.61	4.56	3.68	0	机场68	机场5	0	252160
4	8	 6:19: 5	153	-6	-8	30	9	DOWN	FALSE	FALSE	FALSE	FALSE	FALSE	1.0078	1.0078	1.0508	0.9883	0.9844	0.9961	1.0195	1.0078	0.9766	0.9883	-0.2197	-0.2637	-0.2637	-0.3076	-0.3076	-0.001	-0.001	-0.001	-0.001	-0.001	0.3516	0.3516	0.0104	0.0104	0.0104	0.0104	0.0104	21.4	21.5	268.8	0	0	DISENGD	OFF	33.8818	33.8818	34.0576	34.0576	-0.2578	5.04	5.18	1.04	1.18	2.86	1.13	-0.0625	机场68	机场5	-0.0625	252160
4	8	 6:19: 6	153	3	-8	30	9	DOWN	FALSE	FALSE	FALSE	FALSE	FALSE	0.9961	1	0.9688	0.9922	0.9922	1.0156	1.0156	0.9414	1.0156	0.9961	-0.3516	-0.3516	-0.3516	-0.3955	-0.3955	-0.001	-0.001	-0.001	-0.001	-0.001	0.2637	0.3516	0.0104	0.0104	0.0104	0.0104	0.0104	21.5	21.5	268.8	0	0	DISENGD	OFF	33.8818	33.8818	34.0576	34.0576	-0.2598	-1.4	-1.99	1.91	3.31	3.91	3.49	-0.25	机场68	机场5	-0.25	252160
4	8	 6:19: 7	153	9	-8	30	9	DOWN	FALSE	FALSE	FALSE	FALSE	FALSE	0.9531	1	1.0156	0.9883	1.0234	0.9805	1.0039	1.0039	0.9805	1	-0.4395	-0.4395	-0.4834	-0.4834	-0.4834	-0.001	-0.001	-0.001	-0.001	-0.001	0.1758	0.2637	0.0104	0.0104	0.0104	0.0104	0.0104	21.4	21.5	268.9	0	0	DISENGD	OFF	33.8818	33.8818	34.0576	34.0576	-0.2598	3.63	3.43	1.61	4.25	4.47	4.37	-0.125	机场68	机场5	-0.125	252160
4	8	 6:19: 8	153	10	-8	30	9.25	DOWN	FALSE	FALSE	FALSE	FALSE	FALSE	0.9844	1	0.9961	1.0078	1.0391	0.9883	1.0117	0.9961	1.0039	0.9727	-0.4834	-0.4834	-0.4834	-0.4395	-0.4395	-0.001	-0.001	-0.001	-0.001	-0.001	0.1758	0.1758	0.0094	0.0104	0.0104	0.0104	0.0104	21.4	21.4	268.9	0	0	DISENGD	OFF	33.8818	33.8818	34.0576	34.0576	-0.2617	-0.99	-0.64	2.17	4.72	5.14	4.38	-0.0625	机场68	机场5	-0.0625	252160
4	8	 6:19: 9	153	9	-8	30	9.75	DOWN	FALSE	FALSE	FALSE	FALSE	FALSE	1.0195	1.0195	1.0039	1	1.0195	0.9922	1.0078	1.0078	0.9922	0.9844	-0.4395	-0.4395	-0.4395	-0.4395	-0.4395	-0.001	-0.001	-0.001	-0.001	-0.001	0.3516	0.2637	0.0094	0.0104	0.0094	0.0104	0.0104	21.4	21.3	268.9	0	0	DISENGD	OFF	33.8818	33.8818	34.0576	34.0576	-0.2617	2.2	0.9	3.37	3.13	3.68	3.37	-0.0625	机场68	机场5	-0.0625	252160
4	8	 6:19:10	153	6	-8	30	10	DOWN	FALSE	FALSE	FALSE	FALSE	FALSE	0.9961	0.9609	0.9844	0.9844	1.0313	0.9805	0.9688	0.957	1.0391	0.9805	-0.4395	-0.4395	-0.4395	-0.4395	-0.4395	-0.001	-0.001	-0.001	-0.001	-0.001	0.3516	0.2637	0.0104	0.0104	0.0094	0.0104	0.0104	21.4	21.3	269	0	0	DISENGD	OFF	33.8818	33.8818	34.0576	34.0576	-0.2578	1.1	1.5	2.07	1.71	2.57	1.89	-0.1875	机场68	机场5	-0.1875	252160
4	8	 6:19:11	154	-5	-8	30	10.25	DOWN	FALSE	FALSE	FALSE	FALSE	FALSE	0.9961	0.9609	1.0039	1	1.0469	0.9609	1.0117	1.0195	1.0195	1.0195	-0.4395	-0.4395	-0.3955	-0.3955	-0.3955	-0.001	-0.001	-0.001	-0.001	-0.001	0.3516	0.3516	0.0094	0.0094	0.0094	0.0094	0.0104	21.4	21.3	269	0	0	DISENGD	OFF	33.8818	33.8818	34.0576	34.0576	-0.2578	2.85	3.17	1.25	1.38	2.66	1.46	0	机场68	机场5	0	252160
4	8	 6:19:12	153	-6	-8	30	10.5	DOWN	FALSE	FALSE	FALSE	FALSE	FALSE	0.9922	1.0352	1.0156	1.0195	0.9492	1.0195	1.0117	1.0156	0.9609	1.0039	-0.3955	-0.3955	-0.3516	-0.3516	-0.3516	-0.001	-0.001	-0.001	-0.001	-0.001	0.2637	0.3516	0.0104	0.0094	0.0104	0.0104	0.0094	21.5	21.3	268.9	0	0	DISENGD	OFF	33.8818	33.8818	34.0576	34.0576	-0.2559	0.18	0.19	1.85	1.44	3.72	1.49	0	机场68	机场5	0	252160
4	8	 6:19:13	153	-3	-8	30	10.75	DOWN	FALSE	FALSE	FALSE	FALSE	FALSE	1.0234	0.9922	0.9766	0.9453	1.043	1.0391	0.9961	0.9922	0.9922	0.9531	-0.3516	-0.3516	-0.3076	-0.3076	-0.3076	-0.001	-0.001	-0.001	-0.001	-0.001	0.2637	0.2637	0.0104	0.0094	0.0104	0.0094	0.0094	21.5	21.3	268.8	0	0	DISENGD	OFF	33.8818	33.8818	34.0576	34.0576	-0.2559	0.23	0.01	-1.06	2.01	4.17	2.28	0.125	机场68	机场5	0.125	252160
4	8	 6:19:14	154	-7	-8	30	11	DOWN	FALSE	FALSE	FALSE	FALSE	FALSE	0.9766	0.957	1.0078	1.043	0.9883	0.9805	0.9492	1.0234	1.0234	1.043	-0.2637	-0.2637	-0.2637	-0.2637	-0.2197	-0.001	-0.001	-0.001	-0.001	-0.001	0.2637	0.2637	0.0104	0.0104	0.0104	0.0104	0.0104	21.4	21.3	268.7	0	0	DISENGD	OFF	33.8818	33.8818	34.0576	34.0576	-0.2559	2.95	2.93	4.83	3.49	4.89	3.82	0.1875	机场68	机场5	0.1875	252160
4	8	 6:19:15	153	-3	-8	30	11.25	DOWN	FALSE	FALSE	FALSE	FALSE	FALSE	0.9766	1.0195	1.0391	1.0039	0.9336	0.9844	1.0469	1	1.0039	1	-0.2197	-0.2197	-0.2197	-0.2197	-0.1758	-0.001	-0.001	-0.001	-0.001	-0.001	0.2637	0.2637	0.0104	0.0104	0.0104	0.0104	0.0104	21.5	21.3	268.6	0	0	DISENGD	OFF	33.8818	33.8818	34.0576	34.0576	-0.2559	0.29	0.33	2.99	4.19	4.28	4.08	0.0625	机场68	机场5	0.0625	252160
4	8	 6:19:16	153	2	-8	30	11.5	DOWN	FALSE	FALSE	FALSE	FALSE	FALSE	0.9766	1.0273	1.0742	0.9609	0.9766	1.0352	1.0234	0.9961	0.9805	0.9922	-0.1758	-0.1758	-0.1318	-0.1318	-0.1318	-0.001	-0.001	-0.001	-0.001	-0.001	0.2637	0.2637	0.0104	0.0104	0.0104	0.0104	0.0104	21.4	21.4	268.5	0	0	DISENGD	OFF	33.8818	33.8818	34.0576	34.1016	-0.2598	-0.06	0.71	2.32	4.65	4.18	4.74	0.125	机场68	机场5	0.125	252160
4	8	 6:19:17	153	5	-8	30	11.75	DOWN	FALSE	FALSE	FALSE	FALSE	FALSE	0.9922	0.9609	0.9609	0.9805	1.0195	1.0391	1.043	0.9258	1.0195	0.9805	-0.1318	-0.1318	-0.1318	-0.1318	-0.1318	-0.001	-0.001	-0.001	-0.001	-0.001	0.2637	0.2637	0.0104	0.0104	0.0104	0.0104	0.0104	21.4	21.4	268.5	0	0	DISENGD	OFF	33.8818	33.8818	34.1016	34.1016	-0.2598	-1.32	-2.29	1.35	4.19	3.48	4.4	-0.1875	机场68	机场5	-0.1875	252160
4	8	 6:19:18	154	-1	-8	30	12	DOWN	FALSE	FALSE	FALSE	FALSE	FALSE	1.0117	1.0391	1.0273	1.0039	0.9336	0.9844	1.0156	1.0742	0.9727	1.0352	-0.1318	-0.1318	-0.0879	-0.0879	-0.0879	-0.0021	-0.0021	-0.001	-0.001	-0.001	0.1758	0.2637	0.0104	0.0104	0.0104	0.0104	0.0104	21.4	21.4	268.5	0	0	DISENGD	OFF	33.8818	33.8818	34.1016	34.1016	-0.2617	2.18	2.75	0.06	2.95	1.78	3.12	0.1875	机场68	机场5	0.1875	252160
4	8	 6:19:19	153	-1	-8	30	12.25	DOWN	FALSE	FALSE	FALSE	FALSE	FALSE	1.0039	1.0234	0.9453	1.0078	1.0352	1.0156	0.9609	0.9805	0.9922	0.9922	-0.0439	-0.0439	-0.0439	-0.0439	-0.0439	-0.001	-0.001	-0.001	-0.001	-0.001	0.2637	0.2637	0.0104	0.0104	0.0104	0.0104	0.0104	21.4	21.5	268.6	0	0	DISENGD	OFF	33.8818	33.8818	34.1016	34.1016	-0.2617	4.58	4.83	2.2	1.88	1.65	1.95	-0.125	机场68	机场5	-0.125	252160
4	8	 6:19:20	154	-6	-8	30	12.25	DOWN	FALSE	FALSE	FALSE	FALSE	FALSE	1.0195	1	1.0078	0.9922	0.9688	0.9922	0.9766	1.0039	1.0039	1.0234	-0.0439	0	0	0	0	-0.001	-0.001	-0.001	-0.001	-0.001	0.3516	0.2637	0.0104	0.0104	0.0104	0.0104	0.0104	21.4	21.5	268.6	0	0	DISENGD	OFF	33.9258	33.8818	34.1016	34.1016	-0.2617	-1.65	-1.59	-0.06	1.63	3.05	1.73	0	机场68	机场5	0	252160
4	8	 6:19:21	154	-10	-8	30	12.5	DOWN	FALSE	FALSE	FALSE	FALSE	FALSE	1.0039	0.9688	0.9688	0.9961	1.0156	0.9922	0.9805	1.0195	1.0313	0.9883	0	0	0.0439	0.0439	0.0439	-0.001	-0.001	-0.001	-0.001	-0.001	0.3516	0.3516	0.0104	0.0104	0.0104	0.0104	0.0104	21.4	21.6	268.8	0	0	DISENGD	OFF	33.8818	33.8818	34.1016	34.1016	-0.2617	0.96	0.43	-0.04	2.21	4.14	2.57	0.0625	机场68	机场5	0.0625	252160
4	8	 6:19:22	154	-11	-8	30	12.75	DOWN	FALSE	FALSE	FALSE	FALSE	FALSE	0.9805	0.9648	1.0039	1.0469	0.9883	0.9648	0.9688	1.0195	1.0195	1.0273	0.0439	0.0439	0.0439	0.0879	0.0879	-0.001	-0.001	-0.001	-0.001	-0.001	0.3516	0.3516	0.0104	0.0104	0.0104	0.0104	0.0104	21.5	21.6	268.9	0	0	DISENGD	OFF	33.8818	33.8818	34.1016	34.1016	-0.2617	0.11	-0.23	1.71	3.61	4.23	4	0	机场68	机场5	0	252160
4	8	 6:19:23	154	-9	-8	30	12.75	DOWN	FALSE	FALSE	FALSE	FALSE	FALSE	0.9922	1	1.0195	1	0.9961	0.9844	1.0313	1.0273	0.9844	0.9922	0.0439	0.0439	0.0439	0.0439	0.0439	-0.001	-0.001	-0.001	-0.001	-0.001	0.3516	0.3516	0.0104	0.0104	0.0104	0.0104	0.0104	21.5	21.6	268.9	0	0	DISENGD	OFF	33.8818	33.8818	34.1016	34.1016	-0.2617	3.27	2.6	1.19	3.88	3.96	4.17	0.125	机场68	机场5	0.125	252160
4	8	 6:19:24	154	-6	-8	30	13	DOWN	FALSE	FALSE	FALSE	FALSE	FALSE	0.9961	0.9922	0.9688	1.0195	1.0234	1.0391	0.9883	0.9961	1	0.9688	0.0439	0.0439	0.0439	0.0439	0.0439	-0.001	-0.001	-0.001	-0.0021	-0.001	0.2637	0.2637	0.0104	0.0104	0.0104	0.0104	0.0094	21.5	21.6	269	0	0	DISENGD	OFF	33.8818	33.8818	34.1016	34.1016	-0.2617	1.6	1.29	-0.68	3.04	4.04	3.14	0	机场68	机场5	0	252160
4	8	 6:19:25	154	-3	-8	30	13	DOWN	FALSE	FALSE	FALSE	FALSE	FALSE	1.0039	1.0039	1.0039	0.9922	1.0039	1	1.0156	1	1.0078	1.0039	0.0439	0.0439	0.0439	0.0439	0.0439	-0.0021	-0.001	-0.001	-0.001	-0.001	0.1758	0.2637	0.0104	0.0104	0.0104	0.0104	0.0104	21.5	21.6	269.2	0	0	DISENGD	OFF	33.8818	33.8818	34.1016	34.1016	-0.2617	0.2	0.03	-0.11	3.4	4.04	3.67	0	机场68	机场5	0	252160
4	8	 6:19:26	154	-1	-8	30	13.25	DOWN	FALSE	FALSE	FALSE	FALSE	FALSE	1.0195	0.9961	1	0.9844	1.0117	0.9844	0.9766	0.9648	1.0117	1	0.0439	0.0439	0.0439	0.0439	0.0439	-0.001	-0.001	-0.001	-0.001	-0.001	0.1758	0.1758	0.0094	0.0094	0.0104	0.0104	0.0104	21.4	21.6	269.3	0	0	DISENGD	OFF	33.8818	33.8818	34.0576	34.0576	-0.2578	4.28	4.04	1.5	3.97	4.03	4.08	-0.1875	机场68	机场5	-0.1875	252160
4	8	 6:19:27	154	1	-8	30	13.25	DOWN	FALSE	FALSE	FALSE	FALSE	FALSE	1.0039	1.0117	0.9883	0.9727	1.0508	1.0352	1.0156	0.9883	1.0195	0.9688	0.0439	0.0439	0.0439	0.0439	0.0439	-0.001	-0.001	-0.0021	-0.001	-0.001	0.2637	0.1758	0.0094	0.0094	0.0104	0.0094	0.0104	21.4	21.6	269.3	0	0	DISENGD	OFF	33.8818	33.8818	34.0576	34.0576	-0.2578	0.48	1.11	0.77	4.06	4.51	4.16	-0.0625	机场68	机场5	-0.0625	252160
4	8	 6:19:28	155	-6	-8	30	13.5	DOWN	FALSE	FALSE	FALSE	FALSE	FALSE	0.9805	0.9492	1	1.0078	0.9766	0.9727	1.0039	1.0039	1.0156	1.0039	0.0439	0.0439	0.0439	0.0439	0.0439	-0.001	-0.0021	-0.001	-0.001	-0.001	0.1758	0.1758	0.0104	0.0094	0.0104	0.0104	0.0094	21.4	21.6	269.2	0	0	DISENGD	OFF	33.8818	33.8818	34.0576	34.0576	-0.2578	3.35	2.94	0.56	3.29	1.62	3.56	0.0625	机场68	机场5	0.0625	252160
4	8	 6:19:29	153	3	-8	30	13.5	DOWN	FALSE	FALSE	FALSE	FALSE	FALSE	0.9375	0.9844	1.0469	1.0273	0.9336	0.9883	1.0352	1.0352	1.0039	1.0117	0.0439	0.0439	0.0439	0.0439	0.0439	-0.001	-0.001	-0.001	-0.001	-0.001	0.1758	0.1758	0.0104	0.0094	0.0094	0.0094	0.0094	21.4	21.5	268.9	0	0	DISENGD	OFF	33.8818	33.8818	34.0576	34.0576	-0.2578	0.66	0.96	0.43	3.31	2.01	3.44	0.125	机场68	机场5	0.125	252160
4	8	 6:19:30	154	5	-8	30	13.75	DOWN	FALSE	FALSE	FALSE	FALSE	FALSE	1	1.0234	1	0.9961	1.0156	1.0352	1.0352	1.0078	0.9961	0.9414	0.0439	0.0439	0.0439	0.0439	0.0439	-0.001	-0.001	-0.001	-0.001	-0.0021	0.1758	0.1758	0.0104	0.0104	0.0104	0.0104	0.0104	21.4	21.5	268.7	0	0	DISENGD	OFF	33.8818	33.8818	34.1016	34.1016	-0.2598	2.83	3.25	0.69	3.17	2.77	3.26	-0.125	机场68	机场5	-0.125	252160
4	8	 6:19:31	154	4	-8	30	13.75	DOWN	FALSE	FALSE	FALSE	FALSE	FALSE	1.0078	0.9961	0.9727	1.0039	1.0469	1.0195	0.9688	0.9531	1.0313	0.9648	0.0439	0.0439	0.0439	0.0439	0.0439	-0.001	-0.001	-0.001	-0.0021	-0.001	0.1758	0.2637	0.0104	0.0104	0.0104	0.0104	0.0104	21.4	21.5	268.5	0	0	DISENGD	OFF	33.8818	33.8818	34.1016	34.1016	-0.2598	2.35	2.18	0.12	3.66	3.76	3.82	0	机场68	机场5	0	252160
4	8	 6:19:32	154	2	-8	30	14	DOWN	FALSE	FALSE	FALSE	FALSE	FALSE	1.0195	0.9883	1.0117	1.0039	1.0352	1.0117	0.9727	0.9961	1.0117	1.0117	0.0439	0.0439	0.0439	0.0439	0.0439	-0.001	-0.001	-0.0021	-0.001	-0.001	0.1758	0.1758	0.0104	0.0104	0.0104	0.0104	0.0104	21.4	21.4	268.5	0	0	DISENGD	OFF	33.8818	33.8818	34.1016	34.1016	-0.2637	2.62	2.74	1.06	3.55	3.56	3.71	-0.125	机场68	机场5	-0.125	252160
4	8	 6:19:33	155	-8	-8	30	14	DOWN	FALSE	FALSE	FALSE	FALSE	FALSE	1.0156	1.0156	1.0117	1.0078	0.9922	1.0078	0.9883	1.0117	1.0039	0.9648	0.0439	0.0439	0	0.0439	0.0439	-0.001	-0.001	-0.001	-0.001	-0.001	0.1758	0.1758	0.0104	0.0104	0.0094	0.0104	0.0104	21.4	21.4	268.5	0	0	DISENGD	OFF	33.8818	33.8818	34.1016	34.1016	-0.2637	2.61	2.57	0.81	3.66	3.57	3.68	-0.0625	机场68	机场5	-0.0625	252160
4	8	 6:19:34	154	-7	-8	30	14.25	DOWN	FALSE	FALSE	FALSE	FALSE	FALSE	1.0234	0.9883	1.0156	0.9766	0.9883	0.9883	0.9961	1.0039	1.0195	1.0117	0.0439	0.0439	0	0	0	-0.001	-0.001	-0.001	-0.001	-0.001	0.1758	0.1758	0.0094	0.0104	0.0104	0.0094	0.0104	21.4	21.4	268.5	0	0	DISENGD	OFF	33.8818	33.8818	34.1016	34.1016	-0.2637	1.73	1.91	0.3	3.49	3.65	3.54	0.0625	机场68	机场5	0.0625	252160
4	8	 6:19:35	155	-11	-8	30	14.25	DOWN	FALSE	FALSE	FALSE	FALSE	FALSE	1.0508	0.9922	1.0352	0.9766	0.9844	0.9609	1	1.0039	1.0078	1.0117	0.0439	0.0439	0.0439	0.0439	0.0439	-0.001	-0.001	-0.001	-0.001	-0.001	0.1758	0.1758	0.0104	0.0104	0.0104	0.0104	0.0104	21.4	21.4	268.5	0	0	DISENGD	OFF	33.8818	33.8818	34.1016	34.1016	-0.2637	2.59	2.72	0.81	3.27	2.82	3.26	0.125	机场68	机场5	0.125	252160
4	8	 6:19:36	155	-13	-8	30	14.5	DOWN	FALSE	FALSE	FALSE	FALSE	FALSE	1.0195	1.043	0.9766	1.0234	1.0391	1.0156	1	1.0234	0.9922	0.9883	0.0439	0	0	0	0	-0.001	-0.001	-0.001	-0.001	-0.001	0.1758	0.1758	0.0104	0.0104	0.0104	0.0104	0.0104	21.4	21.3	268.5	0	0	DISENGD	OFF	33.8818	33.8818	34.1016	34.1016	-0.2832	3.4	3.18	1.55	4.52	3.56	4.61	0	机场68	机场5	0	252160
4	8	 6:19:37	155	-12	-8	30	14.25	DOWN	FALSE	FALSE	FALSE	FALSE	FALSE	1.0195	1.0352	1.0586	1.0156	0.9883	0.9961	0.9844	0.9883	0.9922	1.0078	0	0	0	0	0	-0.001	-0.001	-0.001	-0.001	-0.001	0.1758	0.1758	0.0094	0.0104	0.0104	0.0104	0.0104	21.5	21.2	268.6	0	0	DISENGD	OFF	33.9258	33.9258	34.1016	34.1016	-0.2832	3.69	3.61	1.47	3.45	3.65	3.52	0	机场68	机场5	0	252160
4	8	 6:19:38	155	-9	-8	30	14.25	DOWN	FALSE	FALSE	FALSE	FALSE	FALSE	0.9688	0.9961	1.0313	1.0313	1	0.9961	1	1.0039	1.0352	0.9844	0	0	0	0	0	-0.001	-0.001	-0.001	-0.001	-0.001	0.1758	0.1758	0.0104	0.0104	0.0104	0.0104	0.0104	21.4	21.4	268.8	0	0	DISENGD	OFF	33.9258	33.9258	34.1016	34.1016	-0.2676	0.93	0.88	0.56	3.62	3.56	3.71	0	机场68	机场5	0	252160
4	8	 6:19:39	155	-6	-8	30	14.25	DOWN	FALSE	FALSE	FALSE	FALSE	FALSE	0.9531	1	1	0.9961	1.0156	1	0.9961	1	1.0156	1.0078	0.0439	0	0.0439	0.0439	0.0439	-0.001	-0.001	-0.001	-0.001	-0.001	0.1758	0.1758	0.0104	0.0104	0.0104	0.0104	0.0104	21.4	21.4	268.9	0	0	DISENGD	OFF	33.8818	33.8818	34.1016	34.1016	-0.2676	0.89	0.94	-0.23	3.29	2.26	3.35	0	机场68	机场5	0	252160
4	8	 6:19:40	155	-2	-8	30	14.25	DOWN	FALSE	FALSE	FALSE	FALSE	FALSE	0.9961	1.0117	0.9844	1	1.0039	1.0117	0.9961	0.9922	0.9844	0.9961	0.0439	0.0439	0.0439	0.0439	0.0439	-0.001	-0.0021	-0.001	-0.0021	-0.001	0.0879	0.1758	0.0104	0.0104	0.0104	0.0104	0.0104	21.4	21.4	269	0	0	DISENGD	OFF	33.8818	33.8818	34.1016	34.1016	-0.2715	1.25	1.35	-0.67	2.24	3.18	2.24	0	机场68	机场5	0	252000
4	8	 6:19:41	155	0	-8	30	14.5	DOWN	FALSE	FALSE	FALSE	FALSE	FALSE	0.9727	1.0313	1.0078	1.0234	0.9883	1.0156	1.0195	0.9922	0.9766	0.9961	0.0439	0.0439	0.0439	0.0439	0.0439	-0.001	-0.001	-0.001	-0.001	-0.001	0.0879	0.0879	0.0104	0.0104	0.0104	0.0104	0.0104	21.4	21.5	269.1	0	0	DISENGD	OFF	33.8818	33.8818	34.0576	34.0576	-0.2715	2.16	2.21	0.85	3.07	3.18	3.15	-0.0625	机场68	机场5	-0.0625	252000
4	8	 6:19:42	155	1	-8	30	14.5	DOWN	FALSE	FALSE	FALSE	FALSE	FALSE	0.9844	0.9961	0.9922	1.0273	0.9609	1	1.0156	1.0117	1.0078	0.9844	0.0439	0.0439	0.0439	0.0439	0.0439	-0.0021	-0.001	-0.001	-0.001	-0.001	0.0879	0.0879	0.0104	0.0104	0.0104	0.0104	0.0104	21.4	21.5	269.3	0	0	DISENGD	OFF	33.8818	33.8818	34.0576	34.0576	-0.2676	2.96	2.62	0.69	2.92	2.89	3.01	-0.0625	机场68	机场5	-0.0625	252000
4	8	 6:19:43	155	1	-8	30	14.75	DOWN	FALSE	FALSE	FALSE	FALSE	FALSE	1.0234	1	1.0156	0.9844	1.0156	0.9961	1.0039	1.0156	1.0039	0.9961	0.0439	0.0439	0.0439	0.0439	0.0439	-0.0021	-0.001	-0.001	-0.001	-0.001	0.0879	0.0879	0.0104	0.0104	0.0104	0.0104	0.0104	21.3	21.5	269.4	0	0	DISENGD	OFF	33.8818	33.8818	34.0576	34.0576	-0.2676	1.93	2.32	0.62	3.32	3.17	3.36	-0.125	机场68	机场5	-0.125	252000
4	8	 6:19:44	155	1	-8	30	14.75	DOWN	FALSE	FALSE	FALSE	FALSE	FALSE	1	1	0.9727	0.9727	1.0273	0.9922	1	0.9688	0.9922	1.0078	0.0439	0.0439	0.0439	0.0439	0.0439	-0.001	-0.001	-0.001	-0.001	-0.001	0.0879	0.0879	0.0104	0.0104	0.0104	0.0104	0.0104	21.4	21.5	269.4	0	0	DISENGD	OFF	33.8818	33.8818	34.0576	34.0576	-0.2637	2.28	1.78	0.19	2.65	2.99	2.7	0.0625	机场68	机场5	0.0625	252000
4	8	 6:19:45	155	1	-8	30	15	DOWN	FALSE	FALSE	FALSE	FALSE	FALSE	0.9922	0.9492	0.9688	1.0039	1.0039	0.9883	0.9727	0.9961	1.0117	1.0078	0.0439	0.0439	0.0439	0.0439	0.0439	-0.001	-0.001	-0.001	-0.001	-0.001	0.1758	0.0879	0.0104	0.0104	0.0104	0.0104	0.0104	21.3	21.5	269.3	0	0	DISENGD	OFF	33.8818	33.8818	34.0576	34.0576	-0.2637	1.12	0.7	-0.07	3.15	3.23	3.26	0	机场68	机场5	0	252000
4	8	 6:19:46	155	0	-8	30	15	DOWN	FALSE	FALSE	FALSE	FALSE	FALSE	0.9922	1.0547	1	1.0156	0.9922	0.9766	0.9883	1.0469	0.9961	1.0078	0.0439	0	0	0	0	-0.001	-0.0021	-0.001	-0.001	-0.001	0.1758	0.1758	0.0104	0.0104	0.0104	0.0104	0.0104	21.4	21.5	269.1	0	0	DISENGD	OFF	33.8818	33.8818	34.0576	34.0576	-0.2676	2.46	2.33	-0.27	3.04	2.81	3.16	-0.0625	机场68	机场5	-0.0625	252000
4	8	 6:19:47	155	0	-8	30	15.25	DOWN	FALSE	FALSE	FALSE	FALSE	FALSE	1.0586	1.0117	0.9805	1.0117	1.0156	1.0117	1.0078	0.957	0.9688	1.0039	0	0	0	0	0	-0.0021	-0.001	-0.001	-0.001	-0.0021	0.1758	0.1758	0.0104	0.0104	0.0104	0.0104	0.0104	21.4	21.5	269	0	0	DISENGD	OFF	33.8818	33.8818	34.0576	34.0576	-0.2676	2.51	2.63	0.64	3.04	2.93	3.12	-0.0625	机场68	机场5	-0.0625	252000
4	8	 6:19:48	156	-8	-8	30	15.25	DOWN	FALSE	FALSE	FALSE	FALSE	FALSE	1.0352	1.0039	0.9961	1	1.0313	0.9492	0.9961	1	0.9375	0.9922	0.0439	0.0439	0	0	0	-0.0021	-0.001	-0.001	-0.001	-0.001	0.2637	0.2637	0.0104	0.0094	0.0104	0.0104	0.0104	21.4	21.5	268.9	0	0	DISENGD	OFF	33.8818	33.8818	34.0576	34.0576	-0.2637	2.29	2.33	1.59	2.92	2.72	3.05	0.1875	机场68	机场5	0.1875	252000
4	8	 6:19:49	156	-14	-8	30	15.5	DOWN	FALSE	FALSE	FALSE	FALSE	FALSE	1.0039	0.9766	0.9844	1.0352	1.0156	0.9805	0.9609	0.9883	1.0234	1.0234	0	0	0	0	0	-0.001	-0.001	-0.0021	-0.001	-0.0021	0.2637	0.2637	0.0104	0.0104	0.0104	0.0104	0.0104	21.4	21.5	268.8	0	0	DISENGD	OFF	33.8818	33.8818	34.0576	34.0576	-0.2637	2.34	2.05	-0.37	2.74	2.74	2.84	-0.0625	机场68	机场5	-0.0625	252000
4	8	 6:19:50	156	-16	-8	30	15.5	DOWN	FALSE	FALSE	FALSE	FALSE	FALSE	1.0039	0.9766	1.0195	1.0117	1.0039	0.9648	0.9922	0.9844	1.0078	0.9883	0	0	0	0	0	-0.0021	-0.001	-0.001	-0.001	-0.001	0.3516	0.3516	0.0104	0.0104	0.0104	0.0104	0.0104	21.4	21.5	268.8	0	0	DISENGD	OFF	33.8818	33.8818	34.0576	34.0576	-0.2656	2.43	2.3	-0.3	2.79	2.96	2.9	0.0625	机场68	机场5	0.0625	252000
4	8	 6:19:51	156	-13	-8	30	15.5	DOWN	FALSE	FALSE	FALSE	FALSE	FALSE	0.9531	1.0273	1.0117	0.9922	0.9844	1.0078	1	1	1.0117	0.9727	0	0	0	-0.0439	-0.0439	-0.001	-0.001	-0.001	-0.001	-0.001	0.2637	0.2637	0.0104	0.0104	0.0104	0.0104	0.0104	21.4	21.5	268.8	0	0	DISENGD	OFF	33.8818	33.8818	34.0576	34.0576	-0.2656	2.07	2.4	-0.22	2.74	3	2.94	-0.125	机场68	机场5	-0.125	252000
4	8	 6:19:52	155	-1	-8	30	15.75	DOWN	FALSE	FALSE	FALSE	FALSE	FALSE	1.0039	1.0039	1.0234	1.0039	0.957	1.1133	0.9883	0.9727	1	0.9336	-0.0439	-0.0439	-0.0879	-0.0879	-0.0879	-0.001	-0.0021	-0.001	-0.001	-0.001	0.1758	0.1758	0.0104	0.0104	0.0104	0.0104	0.0104	21.4	21.4	268.9	0	0	DISENGD	OFF	33.8818	33.8818	34.0576	34.0576	-0.2656	2.54	2.28	-0.17	2.58	2.1	2.68	0	机场68	机场5	0	252000
4	8	 6:19:53	156	1	-8	30	15.75	DOWN	FALSE	FALSE	FALSE	FALSE	FALSE	0.9883	1.0156	1.0586	1.0195	0.9727	0.9727	1.0195	1.0273	0.9492	1.0156	-0.0439	0	0	0	0	-0.0021	-0.001	-0.001	-0.001	-0.001	0.1758	0.2637	0.0104	0.0104	0.0104	0.0104	0.0104	21.4	21.4	268.9	0	0	DISENGD	OFF	33.8818	33.8818	34.0576	34.0576	-0.2656	2.15	2.09	2.07	3	2.95	3.19	0.0625	机场68	机场5	0.0625	252000
4	8	 6:19:54	156	0	-8	30	16	DOWN	FALSE	FALSE	FALSE	FALSE	FALSE	1.0234	0.9922	1.0078	0.9805	1.0078	0.9961	1.0508	0.9961	0.9688	0.957	0	0	0.0439	0.0439	0.0439	-0.001	-0.001	-0.001	-0.001	-0.0021	0.2637	0.2637	0.0104	0.0104	0.0104	0.0104	0.0104	21.4	21.4	269.1	0	0	DISENGD	OFF	33.8818	33.8818	34.0576	34.0576	-0.2637	2.04	2.29	2.16	2.19	2.29	2.31	0.0625	机场68	机场5	0.0625	252000
4	8	 6:19:55	156	-1	-8	30	16	DOWN	FALSE	FALSE	FALSE	FALSE	FALSE	0.9844	0.9844	0.9648	0.9922	0.9883	1	0.9961	0.9844	0.9922	1.0078	0.0879	0.0879	0.0879	0.0439	0.0439	-0.001	-0.001	-0.001	-0.001	-0.001	0.2637	0.2637	0.0104	0.0104	0.0104	0.0104	0.0104	21.4	21.5	269.1	0	0	DISENGD	OFF	33.8379	33.8379	34.0576	34.0576	-0.2637	2.51	2.85	2.01	3.26	3.05	3.44	0	机场68	机场5	0	252000
4	8	 6:19:56	156	-2	-8	30	16.25	DOWN	FALSE	FALSE	FALSE	FALSE	FALSE	1.0547	0.9922	0.9375	0.918	1.0547	0.9688	1.082	1.0313	0.9258	1.0938	0.0439	0.0439	0.0439	0.0439	0	-0.001	-0.0021	-0.001	-0.001	-0.001	0.1758	0.1758	0.0104	0.0104	0.0104	0.0104	0.0104	21.4	21.4	269.1	0	0	DISENGD	OFF	33.8379	33.8818	34.0576	34.0576	-0.2637	1.27	1.76	-0.21	3.41	2.47	3.67	-0.1875	机场68	机场5	-0.1875	252000
4	8	 6:19:57	157	-10	-8	30	16.25	DOWN	FALSE	FALSE	FALSE	FALSE	FALSE	0.9805	0.9883	1.0156	0.9727	1.0039	1	1.0078	1	1.0117	1.0273	-0.0439	-0.0879	-0.0879	-0.0879	-0.0879	-0.001	-0.001	-0.001	-0.001	-0.001	0.0879	0.0879	0.0104	0.0104	0.0104	0.0104	0.0104	21.4	21.4	269	0	0	DISENGD	OFF	33.8818	33.8818	34.0576	34.0576	-0.2637	0.36	0.69	-0.39	3.14	2.88	3.27	-0.125	机场68	机场5	-0.125	252000
4	8	 6:19:58	156	-8	-8	30	16.25	DOWN	FALSE	FALSE	FALSE	FALSE	FALSE	1.0195	0.9648	1.0352	0.9961	1.0156	0.9727	1.0508	0.9766	0.9844	0.9922	-0.1318	-0.1318	-0.1318	-0.1318	-0.1318	-0.001	-0.001	-0.001	-0.001	-0.001	0.0879	0.0879	0.0104	0.0104	0.0094	0.0104	0.0104	21.4	21.5	268.9	0	0	DISENGD	OFF	33.8818	33.8818	34.0576	34.0576	-0.2637	3.32	3.65	2.1	3.31	3.26	3.46	-0.0625	机场68	机场5	-0.0625	252000
4	8	 6:19:59	156	-3	-8	30	16.5	DOWN	FALSE	FALSE	FALSE	FALSE	FALSE	1.0469	1.043	1.0117	0.9531	1.0234	1.0195	0.9961	0.9766	1.0039	0.9648	-0.1318	-0.1318	-0.1318	-0.1318	-0.1318	-0.001	-0.001	-0.001	-0.001	-0.001	0.0879	0.1758	0.0104	0.0104	0.0104	0.0104	0.0104	21.4	21.5	268.8	0	0	DISENGD	OFF	33.8818	33.8818	34.0576	34.0576	-0.2637	2.04	2.3	-0.48	2.78	3.31	2.94	-0.1875	机场68	机场5	-0.1875	252000
4	8	 6:20: 0	157	-6	-8	30	16.5	DOWN	FALSE	FALSE	FALSE	FALSE	FALSE	0.9609	0.9727	0.9727	1.0391	1.0039	0.9688	0.9102	0.957	1.0469	1.0156	-0.1318	-0.0879	-0.0879	-0.0879	-0.0879	-0.001	-0.001	-0.001	-0.001	-0.001	0.1758	0.0879	0.0104	0.0104	0.0104	0.0104	0.0104	21.4	21.4	268.7	0	0	DISENGD	OFF	33.8818	33.8818	34.0576	34.0576	-0.2656	2.39	2.37	0.22	3.3	3.24	3.3	0.0625	机场68	机场5	0.0625	252000
4	8	 6:20: 1	156	-2	-8	30	16.75	DOWN	FALSE	FALSE	FALSE	FALSE	FALSE	0.9961	1.0117	1.0313	1.0039	0.9844	1.0117	1.0234	0.9883	1	0.9922	-0.0879	-0.0439	-0.0439	-0.0439	-0.0439	-0.001	-0.0021	-0.001	-0.001	-0.001	0.1758	0.1758	0.0104	0.0104	0.0104	0.0104	0.0104	21.4	21.4	268.7	0	0	DISENGD	OFF	33.8818	33.8818	34.0576	34.0576	-0.2656	-0.01	-0.1	-0.28	3.05	3	3.1	0.1875	机场68	机场5	0.1875	252000
4	8	 6:20: 2	156	3	-8	30	16.75	DOWN	FALSE	FALSE	FALSE	FALSE	FALSE	1	0.9727	0.9883	0.9961	1	1.0195	0.9727	0.9844	1.0234	0.9922	-0.0439	-0.0439	-0.0879	-0.1318	-0.1318	-0.001	-0.001	-0.0021	-0.001	-0.001	0.1758	0.0879	0.0104	0.0104	0.0104	0.0104	0.0104	21.4	21.4	268.8	0	0	DISENGD	OFF	33.8818	33.8818	34.0576	34.0576	-0.2695	1.35	1.17	-0.46	2.92	2.81	3.02	-0.125	机场68	机场5	-0.125	252000
4	8	 6:20: 3	156	6	-8	30	17	DOWN	FALSE	FALSE	FALSE	FALSE	FALSE	0.9922	0.9844	0.9961	1.0117	0.9844	0.9648	0.9727	0.9961	1.0313	1.0117	-0.1318	-0.1758	-0.2197	-0.2197	-0.2637	-0.001	-0.001	-0.001	-0.001	-0.001	0.1758	0.1758	0.0104	0.0104	0.0104	0.0104	0.0104	21.4	21.4	268.9	0	0	DISENGD	OFF	33.8818	33.8818	34.0576	34.0576	-0.2695	0.21	-0.04	-0.54	3.36	2.95	3.76	-0.3125	机场68	机场5	-0.3125	252000
4	8	 6:20: 4	157	-1	-8	30	17	DOWN	FALSE	FALSE	FALSE	FALSE	FALSE	0.9922	1.0039	1.0117	1.0313	0.9844	0.9961	1.0117	1	0.9688	1.0195	-0.3076	-0.3076	-0.3076	-0.3516	-0.3955	-0.0021	-0.001	-0.001	-0.001	-0.001	0.1758	0.1758	0.0104	0.0104	0.0104	0.0104	0.0104	21.3	21.4	268.9	0	0	DISENGD	OFF	33.8818	33.8818	34.0576	34.0576	-0.2695	1.31	1.54	2.16	3	3.57	3.23	0	机场68	机场5	0	252000
4	8	 6:20: 5	157	-8	-8	30	17.25	DOWN	FALSE	FALSE	FALSE	FALSE	FALSE	0.9805	1.0234	0.9102	0.9492	0.9922	0.9805	1.0156	1.0195	1.0039	1.0117	-0.3955	-0.3955	-0.3516	-0.3516	-0.3516	-0.001	-0.001	-0.001	-0.001	-0.001	0.1758	0.1758	0.0104	0.0104	0.0104	0.0104	0.0104	21.4	21.4	269	0	0	DISENGD	OFF	33.8818	33.8818	34.0576	34.0576	-0.2695	-0.71	-1.3	-0.89	2.58	3.17	2.64	0.0625	机场68	机场5	0.0625	252000
4	8	 6:20: 6	157	-12	-8	30	17.25	DOWN	FALSE	FALSE	FALSE	FALSE	FALSE	1.0586	1	0.9375	0.9844	1.0586	1.0273	0.9922	1.0156	0.9648	1.0117	-0.3076	-0.2637	-0.2197	-0.1758	-0.1758	-0.001	-0.001	-0.001	-0.001	-0.001	0.1758	0.1758	0.0104	0.0094	0.0104	0.0104	0.0104	21.4	21.4	269	0	0	DISENGD	OFF	33.8818	33.8818	34.0576	34.0576	-0.2656	-0.77	-0.98	-1.2	2.64	3.38	2.69	0.0625	机场68	机场5	0.0625	252000
4	8	 6:20: 7	157	-12	-8	30	17.5	DOWN	FALSE	FALSE	FALSE	FALSE	FALSE	1.0117	0.9648	1.0156	1.0039	1.0156	0.9883	0.9922	0.9766	1.0391	1.0234	-0.1758	-0.1318	-0.1318	-0.0879	-0.0439	-0.0021	-0.001	-0.001	-0.001	-0.001	0.1758	0.1758	0.0104	0.0094	0.0104	0.0104	0.0104	21.4	21.4	269.1	0	0	DISENGD	OFF	33.8818	33.8818	34.0576	34.0576	-0.2656	1.87	1.58	0.67	2.25	2.56	2.29	0	机场68	机场5	0	252000
4	8	 6:20: 8	156	-1	-8	30	17.5	DOWN	FALSE	FALSE	FALSE	FALSE	FALSE	1.0313	1.0352	0.9844	1.0156	1.0352	0.9648	0.9883	1.0078	0.9883	1.043	-0.0439	-0.0439	-0.0439	-0.0439	0	-0.001	-0.001	-0.001	-0.001	-0.001	0.1758	0.1758	0.0104	0.0104	0.0104	0.0104	0.0104	21.4	21.5	269	0	0	DISENGD	OFF	33.8818	33.8818	34.0576	34.0576	-0.2656	1.73	1.89	1.03	2.56	3.03	2.71	-0.3125	机场68	机场5	-0.3125	252000
4	8	 6:20: 9	157	1	-8	30	16.75	DOWN	FALSE	FALSE	FALSE	FALSE	FALSE	0.9688	1.0117	1.0117	0.9961	0.9961	0.9961	1.0156	0.9805	0.9727	0.9883	0	0	0	0	0	-0.001	-0.001	-0.001	-0.001	-0.001	0.0879	0.0879	0.0104	0.0104	0.0104	0.0104	0.0104	21.4	21.5	269	0	0	DISENGD	OFF	33.8818	33.8818	34.0576	34.0576	-0.2656	2.37	2.05	1.52	2.65	3	2.69	0	机场68	机场5	0	252000
4	8	 6:20:10	157	0	-8	30	16.25	DOWN	FALSE	FALSE	FALSE	FALSE	FALSE	0.9844	0.9961	1.0117	1.0078	1.0117	0.9883	1.0391	0.9844	0.9805	0.9961	0.0439	0.0439	0.0879	0.0879	0.1318	-0.001	-0.001	-0.001	-0.001	-0.001	0.0879	0.0879	0.0104	0.0104	0.0104	0.0104	0.0104	21.4	21.5	268.9	0	0	DISENGD	OFF	33.8818	33.8818	34.0576	34.0576	-0.2695	1.83	2.16	0.89	2.77	2.83	2.78	0.0625	机场68	机场5	0.0625	252000
4	8	 6:20:11	157	-2	-8	30	15.75	DOWN	FALSE	FALSE	FALSE	FALSE	FALSE	1.0039	1.0117	1.0156	0.9961	0.9922	1.0078	1.0156	1.0156	0.9844	0.9961	0.1318	0.1318	0.1758	0.1758	0.1758	-0.001	-0.001	-0.0021	-0.0021	-0.001	0.0879	0.0879	0.0104	0.0104	0.0104	0.0104	0.0104	21.4	21.5	268.9	0	0	DISENGD	OFF	33.8818	33.8818	34.0576	34.0576	-0.2695	2.75	2.74	1.89	2.67	2.75	2.74	0	机场68	机场5	0	252000
4	8	 6:20:12	157	-3	-8	30	15.5	DOWN	FALSE	FALSE	FALSE	FALSE	FALSE	1.0391	0.9844	1.0078	0.9844	1	1.0195	0.9922	0.9883	1.0391	1.0078	0.1758	0.1758	0.1758	0.1758	0.1758	-0.001	-0.001	-0.001	-0.001	-0.001	0.0879	0	0.0104	0.0104	0.0104	0.0104	0.0104	21.4	21.4	268.9	0	0	DISENGD	OFF	33.8818	33.8818	34.0576	34.0576	-0.2617	1.89	1.67	1.52	2.82	2.93	2.88	0	机场68	机场5	0	252000
4	8	 6:20:13	157	-3	-8	30	15.25	DOWN	FALSE	FALSE	FALSE	FALSE	FALSE	0.9922	1.0156	1.0039	0.9961	1	0.9805	0.9961	0.9961	1.0117	1	0.1758	0.1758	0.1758	0.1758	0.1318	-0.001	-0.0021	-0.001	-0.001	-0.001	0.1758	0.1758	0.0104	0.0104	0.0104	0.0104	0.0104	21.4	21.4	268.9	0	0	DISENGD	OFF	33.8818	33.8818	34.0576	34.0576	-0.2617	0.76	0.33	0.33	3.01	2.67	3.16	-0.125	机场68	机场5	-0.125	252000
4	8	 6:20:14	158	-10	-8	30	14.75	DOWN	FALSE	FALSE	FALSE	FALSE	FALSE	0.9961	0.9805	0.9727	0.9844	1.0156	1.0156	1.0078	0.9766	1.0156	1.0156	0.1318	0.1318	0.1318	0.1318	0.1318	-0.001	-0.001	-0.001	-0.001	-0.0031	0.0879	0.0879	0.0104	0.0104	0.0104	0.0104	0.0104	21.4	21.5	268.8	0	0	DISENGD	OFF	33.8818	33.8818	34.0576	34.0576	-0.2695	1.55	1.79	1.02	2.33	2.04	2.36	-0.1875	机场68	机场5	-0.1875	252000
4	8	 6:20:15	158	-15	-8	30	14.5	DOWN	FALSE	FALSE	FALSE	FALSE	FALSE	1.0313	0.9883	0.9922	0.9609	1.0039	1.0156	1.0156	1.0078	0.9883	0.9883	0.1318	0.1318	0.1318	0.0879	0.0879	-0.001	-0.0021	-0.001	-0.001	-0.001	0.1758	0.1758	0.0104	0.0104	0.0104	0.0104	0.0104	21.4	21.4	268.8	0	0	DISENGD	OFF	33.8818	33.8818	34.0576	34.0576	-0.2695	1.73	1.76	1.12	2.18	2.18	2.13	0	机场68	机场5	0	252000
4	8	 6:20:16	158	-16	-8	30	14.5	DOWN	FALSE	FALSE	FALSE	FALSE	FALSE	0.9961	1.0156	1.0078	0.9883	0.9883	0.9844	0.9766	1.0117	1.0117	1.0273	0.0879	0.0879	0.0879	0.0879	0.0879	-0.001	-0.001	-0.001	-0.001	-0.001	0.1758	0.1758	0.0104	0.0104	0.0104	0.0104	0.0104	21.4	21.5	268.9	0	0	DISENGD	OFF	33.8818	33.8818	34.0576	34.0576	-0.2656	1.14	1.12	0.66	2.54	2.84	2.51	0.0625	机场68	机场5	0.0625	252000
4	8	 6:20:17	158	-13	-8	30	14.25	DOWN	FALSE	FALSE	FALSE	FALSE	FALSE	0.9883	1	1.0039	1.0039	0.9844	0.9844	0.9805	1.0039	0.9922	1	0.0879	0.0879	0.0879	0.0879	0.0879	-0.001	-0.001	-0.001	-0.0021	-0.001	0.1758	0.1758	0.0104	0.0104	0.0104	0.0104	0.0104	21.4	21.5	268.9	0	0	DISENGD	OFF	33.8818	33.8818	34.0576	34.0576	-0.2656	0.46	0.31	0.01	2.47	2.6	2.43	0	机场68	机场5	0	252000
4	8	 6:20:18	158	-9	-8	30	14	DOWN	FALSE	FALSE	FALSE	FALSE	FALSE	0.9766	0.9961	1.0078	1.0117	0.9688	1.0117	0.9844	1.0234	1.0195	1.0117	0.0879	0.0879	0.0879	0.0879	0.0879	-0.001	-0.001	-0.001	-0.001	-0.001	0.1758	0.1758	0.0104	0.0104	0.0104	0.0104	0.0104	21.4	21.4	268.9	0	0	DISENGD	OFF	33.8818	33.8818	34.0576	34.0576	-0.2598	2.2	2.41	0.67	3.01	2.6	3.01	-0.0625	机场68	机场5	-0.0625	252000
