DATE: MONTH	DATE: DAY	GMT	ALTITUDE (1013)	Inertial Vertical Speed	RADIO ALT	COMPUTED AIR SPD	GROUNDSPEED	 GEAR SELECT DOWN	WOW INDICATE INAIR	WOW INDICATE INAIR	WOW INDICATE INAIR	WOW INDICATE INAIR	WOW INDICATE INAIR	COG NORM ACCEL	COG NORM ACCEL	COG NORM ACCEL	COG NORM ACCEL	COG NORM ACCEL	COG NORM ACCEL	COG NORM ACCEL	COG NORM ACCEL	COG NORM ACCEL	COG NORM ACCEL	PITCH ATT	PITCH ATT	PITCH ATT	PITCH ATT	PITCH ATT	CAP CLM 1 POSN	CAP CLM 1 POSN	CAP CLM 1 POSN	CAP CLM 1 POSN	CAP CLM 1 POSN	ROLL ATT	ROLL ATT	CAP WHL 1 POSN	CAP WHL 1 POSN	CAP WHL 1 POSN	CAP WHL 1 POSN	CAP WHL 1 POSN	N1 SELTED-L	N1 SELTED-R	MAGNETIC HEADING	WIND DIR(ADIRU)	WIND SPD(ADIRU)	A/T ENGAGED	ANY A/P ENGAGED	TRA-L	TRA-L	TRA-R	TRA-R	RUDD POSN	GLIDESLOPE DEV Dots (C)	GLIDESLOPE DEV Dots (L)	GLIDESLOPE DEV Dots (R)	LOCALIZER DEV Dots (C)	LOCALIZER DEV Dots (L)	LOCALIZER DEV Dots (R)	PITCH ATT RATE	DEPARTURE AIRPORT	DESTINATION AIRPORT	PITCH ATT RATE	FMF GROSS WEIGHT
DATECLKMON 	DATECLKDAY 	GMT	ALT 	ZIVV 	GPRA 	CAS 	GNDSPEED 	LGDN	WOWINAIR 	WOWINAIR 	WOWINAIR 	WOWINAIR 	WOWINAIR 	CGBRMACL 	CGBRMACL 	CGBRMACL 	CGBRMACL 	CGBRMACL 	CGBRMACL 	CGBRMACL 	CGBRMACL 	CGBRMACL 	CGBRMACL 	PITCH 	PITCH 	PITCH 	PITCH 	PITCH 	CCOL1POS 	CCOL1POS 	CCOL1POS 	CCOL1POS 	CCOL1POS 	ROLL 	ROLL 	CWHL1POS 	CWHL1POS 	CWHL1POS 	CWHL1POS 	CWHL1POS 	N1.L 	N1.R 	MAGHEADNG 	WINDIRCTRU 	WINDSPEED 	TMATENGD 	APENG 	TRA.L 	TRA.L 	TRA.R 	TRA.R 	RUDPOSN 	GSDEVC	GSDEVL	GSDEVR	LOCDEVC	LOCDEVL	LOCDEVR	PTCHATTRAT 	DEPRTARPT 	DESTARPT 	PTCHATTRAT 	FMFGROSSWT 
months	days	HHMMSS	FT	FT	"FT"" "	KNTS	KNTS	DOWN	TRUE	TRUE	TRUE	TRUE	TRUE	GEES	GEES	GEES	GEES	GEES	GEES	GEES	GEES	GEES	GEES	DEGS	DEGS	DEGS	DEGS	DEGS	IN LVDT	IN LVDT	IN LVDT	IN LVDT	IN LVDT	DEGS	DEGS	IN LVDT	IN LVDT	IN LVDT	IN LVDT	IN LVDT	 	 	DEGS	DEG	KNTS	ENGAGED	ON	DEG	DEG	DEG	DEG	IN	DOT	DOT	DOT	DOT	DOT	DOT	DEG/SEC	 	 	DEG/SEC	KGS
4	10	 8:43:26	-83	1	-8	30	10	DOWN	FALSE	FALSE	FALSE	FALSE	FALSE	0.957	0.9844	0.9766	1.0195	0.9844	0.9922	1.0078	1	0.9883	0.9766	-0.5273	-0.4834	-0.4395	-0.4395	-0.3955	-0.001	-0.001	-0.001	-0.001	-0.001	0.4395	0.4395	0	-0.001	-0.001	-0.001	-0.001	21.4	21.3	90.4	0	0	DISENGD	OFF	34.1016	34.1016	34.1895	34.1895	-0.2129	-0.2	-0.04	-3.3	2.59	2.45	2.81	-0.0625	机场68	机场73	-0.0625	250080
4	10	 8:43:27	-84	8	-8	30	9.75	DOWN	FALSE	FALSE	FALSE	FALSE	FALSE	1	0.9844	0.9883	0.9844	1	1.0117	1.0195	0.9961	1.0039	0.9766	-0.3955	-0.3516	-0.3516	-0.3076	-0.3076	-0.001	-0.001	-0.001	-0.001	-0.001	0.4395	0.4395	0	0	0	0	0	21.4	21.3	90.6	0	0	DISENGD	OFF	34.1016	34.1016	34.1895	34.1895	-0.2129	2.51	1.76	-3.83	3.01	3.39	2.97	0.125	机场68	机场73	0.125	250080
4	10	 8:43:28	-83	6	-8	30	9.5	DOWN	FALSE	FALSE	FALSE	FALSE	FALSE	1.0117	1.0078	0.9883	0.9844	1.0156	1	1.0156	0.9883	0.9922	1.0117	-0.2637	-0.2637	-0.2637	-0.2197	-0.2197	-0.001	-0.001	-0.001	-0.001	-0.001	0.4395	0.4395	0	0	0	0	0	21.6	21.2	91.2	0	0	DISENGD	OFF	34.1016	34.1016	34.1895	34.1895	-0.2324	-1.68	-1.54	-2.81	2.95	3.13	3.07	0	机场68	机场73	0	250080
4	10	 8:43:29	-83	1	-8	30	9.25	DOWN	FALSE	FALSE	FALSE	FALSE	FALSE	1.0117	0.9688	0.9922	1.0039	1.043	1	0.9688	0.9648	1.0195	1	-0.2197	-0.2197	-0.1758	-0.1758	-0.1758	-0.001	-0.001	-0.001	-0.001	-0.001	0.3516	0.4395	0	0	0	-0.001	0	21.5	21.2	92.5	0	0	DISENGD	OFF	34.1016	34.1016	34.1895	34.1895	-0.2324	-1.54	-1.62	-3.42	1.02	1.75	0.99	0	机场68	机场73	0	250080
4	10	 8:43:30	-83	-2	-8	30	9	DOWN	FALSE	FALSE	FALSE	FALSE	FALSE	0.9922	0.9844	1	0.9961	1	0.9766	0.9961	0.9922	1.0273	1.0117	-0.1758	-0.1758	-0.1758	-0.1758	-0.1758	-0.001	-0.001	-0.001	-0.001	-0.001	0.3516	0.3516	-0.001	0	0	0	0	21.5	21.2	94.4	0	0	DISENGD	OFF	34.1016	34.0576	34.1895	34.1895	-0.2285	0.49	0.28	-2.18	3.43	2.64	3.16	0.0625	机场68	机场73	0.0625	250080
4	10	 8:43:31	-83	-4	-8	30	9	DOWN	FALSE	FALSE	FALSE	FALSE	FALSE	0.9648	1.0273	1.0469	1.0234	0.9375	0.9805	0.9961	1.0273	1.0078	1.0078	-0.1318	-0.1318	-0.1318	-0.1318	-0.1318	-0.001	-0.001	-0.001	-0.001	-0.001	0.3516	0.3516	0.0052	0.0052	0.0042	0.0042	0.0042	21.5	21.2	97.1	0	0	DISENGD	OFF	34.0576	34.0576	34.1895	34.1895	-0.2285	-3.07	-3.17	-3.37	3.64	3.75	4.03	0	机场68	机场73	0	250080
4	10	 8:43:32	-84	3	-8	30	9	DOWN	FALSE	FALSE	FALSE	FALSE	FALSE	1.0156	1.0234	0.9961	1.0039	0.9961	1.0117	1.0117	0.9844	0.9727	0.9961	-0.0879	-0.0879	-0.0879	-0.0879	-0.0879	-0.001	-0.001	-0.001	-0.001	-0.001	0.3516	0.3516	0.0063	0.0063	0.0063	0.0063	0.0063	21.5	21.2	100.7	0	0	DISENGD	OFF	34.0576	34.0576	34.1895	34.1895	-0.2227	-2.14	-2.4	-3.33	1.57	1.59	1.34	0	机场68	机场73	0	250080
4	10	 8:43:33	-84	10	-8	30	8.75	DOWN	FALSE	FALSE	FALSE	FALSE	FALSE	1.0039	1.0117	0.9883	1	1	0.9961	0.9805	0.9805	1.0156	0.9922	-0.1318	-0.1318	-0.1318	-0.1758	-0.1758	-0.001	-0.001	-0.001	-0.001	-0.001	0.4395	0.4395	0.0063	0.0063	0.0063	0.0063	0.0063	21.5	21.2	104.9	0	0	DISENGD	OFF	34.0576	34.0576	34.1895	34.1895	-0.2227	-3.31	-3.34	-3.66	2.88	3.18	2.79	-0.1875	机场68	机场73	-0.1875	250080
4	10	 8:43:34	-84	13	-8	30	9	DOWN	FALSE	FALSE	FALSE	FALSE	FALSE	1.0078	0.9609	0.9922	1.0039	1.0156	0.9922	1.0039	1.0039	1	0.9961	-0.2197	-0.2197	-0.2197	-0.2637	-0.2637	-0.001	-0.001	-0.001	-0.001	-0.001	0.4395	0.4395	0.0063	0.0063	0.0063	0.0063	0.0063	21.5	21.3	109.9	0	0	DISENGD	OFF	34.0576	34.0576	34.1895	34.2334	-0.2422	-3.65	-3.54	-3.3	1.89	1.81	2.01	-0.125	机场68	机场73	-0.125	250080
4	10	 8:43:35	-84	12	-8	30	9.25	DOWN	FALSE	FALSE	FALSE	FALSE	FALSE	0.9844	0.9922	1	1.0195	0.9883	0.9648	0.9766	1.0156	1.0195	1.0273	-0.3076	-0.3076	-0.3076	-0.3076	-0.3516	-0.0021	-0.001	-0.001	-0.001	-0.001	0.4395	0.4395	0.0063	0.0063	0.0063	0.0063	0.0063	21.6	21.2	115.2	0	0	DISENGD	OFF	34.0576	34.0576	34.1895	34.1895	-0.2422	-3.59	-3.22	-2.74	3.27	3.33	3.23	-0.0625	机场68	机场73	-0.0625	250080
4	10	 8:43:36	-84	9	-8	30	9.25	DOWN	FALSE	FALSE	FALSE	FALSE	FALSE	0.9883	0.9922	0.9961	1.0039	0.9922	0.9883	1.0078	1.0234	0.9883	1.0078	-0.3516	-0.3516	-0.3516	-0.3955	-0.3955	-0.001	-0.001	-0.001	-0.001	-0.001	0.5273	0.4395	0.0063	0.0063	0.0073	0.0063	0.0063	21.7	21.2	121	0	0	DISENGD	OFF	34.0576	34.0576	34.1895	34.1895	-0.2461	-2.86	-2.7	-3.19	1.58	1.73	1.66	-0.1875	机场68	机场73	-0.1875	250080
4	10	 8:43:37	-84	5	-8	30	9.25	DOWN	FALSE	FALSE	FALSE	FALSE	FALSE	1.0039	1.0117	1.0117	0.9961	0.9961	0.9883	1.0117	0.9961	0.9883	1.0039	-0.3955	-0.4395	-0.4395	-0.4395	-0.4395	-0.001	-0.001	-0.0021	-0.001	-0.001	0.5273	0.5273	0.0063	0.0063	0.0063	0.0063	0.0063	21.8	21.2	127	0	0	DISENGD	OFF	34.0576	34.0576	34.1895	34.1895	-0.2461	-3.35	-3.08	-2.33	2.89	3	2.96	-0.125	机场68	机场73	-0.125	250080
4	10	 8:43:38	-84	2	-8	30	9.5	DOWN	FALSE	FALSE	FALSE	FALSE	FALSE	0.9883	1.0078	0.9922	0.9922	0.9961	1	1	0.9922	1	0.9883	-0.4395	-0.4395	-0.4395	-0.4395	-0.4395	-0.001	-0.001	-0.001	-0.001	-0.001	0.5273	0.5273	0.0063	0.0063	0.0063	0.0063	0.0063	21.8	21.3	132.9	0	0	DISENGD	OFF	34.0576	34.0576	34.1895	34.1895	-0.252	-2.72	-2.78	-2.01	2.84	2.7	2.76	-0.0625	机场68	机场73	-0.0625	250080
4	10	 8:43:39	-84	0	-8	30	9.5	DOWN	FALSE	FALSE	FALSE	FALSE	FALSE	0.9922	1.0117	1.0156	0.9922	0.9961	1.0039	1.0117	0.9922	0.9844	0.9961	-0.4395	-0.4395	-0.4395	-0.4395	-0.4395	-0.001	-0.001	-0.001	-0.001	-0.001	0.5273	0.5273	0.0063	0.0063	0.0063	0.0063	0.0063	21.8	21.3	139	0	0	DISENGD	OFF	34.0576	34.0576	34.1895	34.1895	-0.252	-3.35	-3.35	-3.35	2.3	1.34	2.45	0	机场68	机场73	0	250080
4	10	 8:43:40	-83	-9	-8	30	9.25	DOWN	FALSE	FALSE	FALSE	FALSE	FALSE	1.0078	0.9922	0.9883	0.9922	1.0156	1.0039	1	0.9766	1.0078	0.9883	-0.4834	-0.4834	-0.4834	-0.4834	-0.4834	-0.001	-0.001	-0.001	-0.001	-0.001	0.5273	0.5273	0.0063	0.0063	0.0063	0.0063	0.0063	21.6	21.3	144.6	0	0	DISENGD	OFF	34.0576	34.0576	34.1895	34.1895	-0.2559	-2.87	-2.98	-3.4	2.96	2.41	3.06	0.0625	机场68	机场73	0.0625	250080
4	10	 8:43:41	-83	-15	-8	30	9.25	DOWN	FALSE	FALSE	FALSE	FALSE	FALSE	1.0078	1	0.9961	0.9922	1	1	0.9766	1	1.0117	1.0078	-0.4834	-0.4834	-0.4834	-0.4834	-0.4834	-0.001	-0.001	-0.001	-0.001	-0.001	0.6152	0.5273	0.0063	0.0063	0.0063	0.0063	0.0063	21.5	21.2	149.8	0	0	DISENGD	OFF	34.0576	34.0576	34.1895	34.1895	-0.2559	-2.82	-2.72	-3.21	3.67	3.92	3.71	0.0625	机场68	机场73	0.0625	250080
4	10	 8:43:42	-83	-17	-8	30	9.25	DOWN	FALSE	FALSE	FALSE	FALSE	FALSE	1.0078	1.0039	0.9961	0.9961	1.0078	1.0156	0.9883	0.9844	1	1	-0.4834	-0.4834	-0.4834	-0.4834	-0.4834	-0.001	-0.001	-0.001	-0.001	-0.001	0.6152	0.6152	0.0063	0.0063	0.0063	0.0063	0.0063	21.4	21.1	154.4	0	0	DISENGD	OFF	34.0576	34.0576	34.1895	34.1895	-0.2637	-3.18	-3.21	-3.37	3.81	3.85	3.74	-0.0625	机场68	机场73	-0.0625	250080
4	10	 8:43:43	-84	-6	-8	30	9	DOWN	FALSE	FALSE	FALSE	FALSE	FALSE	1	0.9922	0.9805	0.9883	0.9961	1.0195	0.9922	0.9961	1.0156	1.0352	-0.4834	-0.4834	-0.4834	-0.4834	-0.4834	-0.001	-0.001	-0.001	-0.001	-0.001	0.6152	0.6152	0.0063	0.0063	0.0063	0.0063	0.0063	21.3	21.1	158.6	0	0	DISENGD	OFF	34.0576	34.0576	34.1895	34.1895	-0.2637	-3.49	-3.2	-1.91	0.34	0.89	0.77	0.0625	机场68	机场73	0.0625	250080
4	10	 8:43:44	-84	5	-8	30	9	DOWN	FALSE	FALSE	FALSE	FALSE	FALSE	0.9961	1	0.9961	0.9883	1.0078	0.9922	1.0117	0.9922	1.0078	1.0039	-0.4834	-0.4834	-0.4834	-0.4395	-0.4395	-0.001	-0.001	-0.001	-0.001	-0.001	0.5273	0.6152	0.0063	0.0063	0.0063	0.0063	0.0063	21.2	21.1	162.3	0	0	DISENGD	OFF	34.0576	34.0576	34.1895	34.1895	-0.2715	1.42	0.83	-0.36	-0.13	0.82	-0.65	0	机场68	机场73	0	250080
4	10	 8:43:45	-84	11	-8	30	9	DOWN	FALSE	FALSE	FALSE	FALSE	FALSE	1.0117	0.9883	1.0039	1.0117	0.9922	1	0.9961	1	0.9844	1.0078	-0.4395	-0.4395	-0.4395	-0.4395	-0.4395	-0.001	-0.001	-0.001	-0.001	-0.001	0.4395	0.4395	0.0063	0.0063	0.0063	0.0063	0.0063	21.2	21.2	165.3	0	0	DISENGD	OFF	34.0576	34.0576	34.1895	34.1895	-0.2715	-1.34	-1.44	-3.07	0.71	0.57	0.7	-0.0625	机场68	机场73	-0.0625	250080
4	10	 8:43:46	-84	12	-8	30	9.25	DOWN	FALSE	FALSE	FALSE	FALSE	FALSE	1.0117	0.9609	0.9766	0.9727	0.9961	0.9844	1.0039	1.0078	1	0.9961	-0.3955	-0.3955	-0.3955	-0.3955	-0.3955	-0.001	-0.001	-0.001	-0.001	-0.001	0.2637	0.3516	0.0063	0.0063	0.0063	0.0063	0.0063	21.1	21.2	167.8	0	0	DISENGD	OFF	34.0576	34.0576	34.1895	34.1895	-0.2715	-2.34	-2.08	-2.79	0.42	0.75	0.12	-0.0625	机场68	机场73	-0.0625	250080
4	10	 8:43:47	-84	10	-8	30	9.5	DOWN	FALSE	FALSE	FALSE	FALSE	FALSE	0.9805	1	1.0195	1.0117	1.0195	1.0117	0.9922	0.9961	0.9883	0.9609	-0.3955	-0.3955	-0.3955	-0.3955	-0.3955	-0.001	-0.001	-0.001	-0.001	-0.001	0.1758	0.2637	0	0	0	0.0063	0.0063	21.1	21.2	169.9	0	0	DISENGD	OFF	34.0576	34.0576	34.1895	34.1895	-0.2715	-3.42	-3.5	-1.82	0.49	0.4	0.39	0.0625	机场68	机场73	0.0625	250080
4	10	 8:43:48	-84	7	-8	30	9.5	DOWN	FALSE	FALSE	FALSE	FALSE	FALSE	1.0039	1.0117	0.9844	1	1.0039	0.9844	0.9922	0.957	1.0039	1.0078	-0.3955	-0.3955	-0.3955	-0.3955	-0.3955	-0.001	-0.001	-0.001	-0.001	-0.001	0.1758	0.1758	0	0	0	0	0	21.1	21.2	171.8	0	0	DISENGD	OFF	34.0576	34.0576	34.1895	34.1895	-0.2715	-2.93	-2.72	-1.45	0.52	0.42	0.85	-0.125	机场68	机场73	-0.125	250080
4	10	 8:43:49	-84	3	-8	30	9.75	DOWN	FALSE	FALSE	FALSE	FALSE	FALSE	1.0078	0.9844	1.0039	1.0039	1.0039	0.9922	0.9844	0.9961	1.0078	1.0078	-0.3955	-0.3955	-0.3955	-0.3955	-0.3955	-0.001	-0.001	-0.001	-0.001	-0.001	0.0879	0.0879	0	0	0	0	0	21.1	21.2	173.6	0	0	DISENGD	OFF	34.0576	34.0576	34.1895	34.1895	-0.2715	-2.59	-2.69	-2.67	-0.08	1.05	0.09	0.0625	机场68	机场73	0.0625	250080
4	10	 8:43:50	-84	0	-8	30	10	DOWN	FALSE	FALSE	FALSE	FALSE	FALSE	1.0039	1.0195	1.0039	0.9922	0.9883	0.9805	1.0273	1.0117	1.0039	1.0078	-0.3955	-0.3955	-0.3955	-0.3955	-0.3955	-0.001	-0.001	-0.001	-0.001	-0.001	0.0879	0.0879	-0.001	0	0	0	0	21.1	21.2	175.2	0	0	DISENGD	OFF	34.0576	34.0576	34.1895	34.1895	-0.2715	-1.58	-2.3	0.9	0.75	0.69	0.94	0	机场68	机场73	0	250080
4	10	 8:43:51	-84	-1	-8	30	10.25	DOWN	FALSE	FALSE	FALSE	FALSE	FALSE	1.0039	1.0039	0.9922	0.9805	0.9883	1.0117	0.9961	1.0078	0.9805	1.0234	-0.3955	-0.3516	-0.3516	-0.3516	-0.3516	-0.001	-0.001	-0.001	-0.001	-0.001	0	0	0	0	0	0	0	21.1	21.2	176.5	0	0	DISENGD	OFF	34.0576	34.0576	34.1895	34.1895	-0.2715	0.33	0.92	1.34	-1.41	1.08	-1.03	-0.0625	机场68	机场73	-0.0625	250080
4	10	 8:43:52	-84	-2	-8	30	10.25	DOWN	FALSE	FALSE	FALSE	FALSE	FALSE	1.0039	0.9922	0.9805	0.9922	1	0.9922	1.0039	1.0117	0.9922	0.9844	-0.3516	-0.3516	-0.3516	-0.3516	-0.3516	-0.001	-0.001	-0.001	-0.001	-0.001	0	0	0	0	0	0	0	21.1	21.2	177.5	0	0	DISENGD	OFF	34.0576	34.0576	34.1895	34.1895	-0.2715	-3.03	-2.11	-1.58	1.3	-1.17	1.44	-0.0625	机场68	机场73	-0.0625	250080
4	10	 8:43:53	-84	-1	-8	30	10.5	DOWN	FALSE	FALSE	FALSE	FALSE	FALSE	1.0039	0.9961	0.9922	1.0195	1.0156	0.9961	0.9805	1.0039	1.0039	1.0078	-0.3516	-0.3516	-0.3516	-0.3516	-0.3516	-0.001	-0.001	-0.001	-0.001	-0.001	0	0	-0.0031	-0.0031	-0.0031	-0.0021	-0.001	21.1	21.2	178.2	0	0	DISENGD	OFF	34.0576	34.0576	34.1895	34.1895	-0.2715	-3.53	-3.54	-2.89	0.58	3.21	0.89	0	机场68	机场73	0	250080
4	10	 8:43:54	-84	-1	-8	30	10.75	DOWN	FALSE	FALSE	FALSE	FALSE	FALSE	0.9961	1.0195	1.0117	0.9844	0.9805	1.0039	1.0195	1.0039	0.9805	0.9844	-0.3955	-0.3955	-0.3516	-0.3516	-0.3516	-0.001	-0.001	-0.001	-0.001	-0.001	0.0879	0	-0.0031	-0.0031	-0.0031	-0.0031	-0.0031	21.1	21.2	178.6	0	0	DISENGD	OFF	34.0576	34.0576	34.1895	34.1895	-0.2715	-3.2	-3.24	-2.51	-0.7	-4.83	-0.55	-0.0625	机场68	机场73	-0.0625	250080
4	10	 8:43:55	-84	0	-8	30	11	DOWN	FALSE	FALSE	FALSE	FALSE	FALSE	1.0313	0.9922	0.9922	0.9922	0.9922	0.9844	0.9727	1	0.9688	1.0313	-0.3516	-0.3516	-0.3516	-0.3516	-0.3516	-0.001	-0.001	-0.001	-0.001	-0.001	0.0879	0.0879	-0.0031	-0.0042	-0.0042	-0.0042	-0.0042	21.1	21.2	179	0	0	DISENGD	OFF	34.0576	34.0576	34.1895	34.1895	-0.2715	-3.4	-3.28	-2.65	0.23	0.39	0.26	-0.0625	机场68	机场73	-0.0625	250080
4	10	 8:43:56	-84	0	-8	30	11.25	DOWN	FALSE	FALSE	FALSE	FALSE	FALSE	0.9766	0.9844	0.9961	1.0039	0.9648	0.9727	1	1.0039	1	1.0195	-0.3516	-0.3516	-0.3516	-0.3955	-0.3516	-0.001	-0.001	-0.001	-0.001	-0.001	0.0879	0.0879	-0.0042	-0.0042	-0.0042	-0.0042	-0.0042	21.1	21.2	179.2	0	0	DISENGD	OFF	34.1016	34.1016	34.1895	34.1895	0.0449	-3.07	-3.01	-1.91	0.29	0.35	0.35	-0.0625	机场68	机场73	-0.0625	250080
4	10	 8:43:57	-85	8	-8	30	11.5	DOWN	FALSE	FALSE	FALSE	FALSE	FALSE	1.0117	1	0.9766	0.9805	1.0117	1.0352	1.0039	0.9922	1.0117	0.9883	-0.3955	-0.3955	-0.3516	-0.3955	-0.3516	-0.001	-0.001	-0.001	-0.001	-0.001	0.0879	0.0879	-0.0042	-0.0042	-0.0042	-0.0042	-0.0042	21.1	21.2	179.4	0	0	DISENGD	OFF	34.1016	34.1016	34.1895	34.1895	0.0449	-2.86	-2.91	0.88	0.69	0.95	0.75	0	机场68	机场73	0	250080
4	10	 8:43:58	-84	6	-8	30	11.5	DOWN	FALSE	FALSE	FALSE	FALSE	FALSE	0.9922	1	0.9609	1.0078	0.9961	0.9883	0.9648	0.9883	1.0078	1.0039	-0.3955	-0.3955	-0.3955	-0.3955	-0.3955	-0.001	-0.001	-0.001	-0.001	-0.001	0.1758	0.1758	-0.0042	-0.0042	-0.0042	-0.0042	-0.0042	21.1	21.3	179.4	0	0	DISENGD	OFF	34.1016	34.1016	34.1895	34.1895	0.4551	-3.21	-3	-1.79	1.7	1.65	1.89	-0.125	机场68	机场73	-0.125	250080
4	10	 8:43:59	-84	2	-8	30	11.75	DOWN	FALSE	FALSE	FALSE	FALSE	FALSE	1.0156	1.0156	1.0391	1	0.9805	0.9883	0.9961	0.9844	0.9961	1.0313	-0.3955	-0.3955	-0.3955	-0.3955	-0.3955	-0.001	-0.001	-0.001	-0.001	-0.001	0.2637	0.2637	-0.0052	-0.0052	-0.0042	-0.0052	-0.0042	21.1	21.3	179.4	0	0	DISENGD	OFF	34.1016	34.1016	34.1895	34.1895	0.4551	1.43	0.17	1.06	3.21	3.02	2.89	-0.1875	机场68	机场73	-0.1875	250080
4	10	 8:44: 0	-84	-2	-8	30	12	DOWN	FALSE	FALSE	FALSE	FALSE	FALSE	1.0117	0.9883	0.9844	0.9883	1.0039	0.9766	0.9961	0.9961	1.0039	0.9727	-0.3955	-0.3955	-0.3955	-0.3955	-0.3955	-0.001	-0.001	-0.001	-0.001	-0.001	0.2637	0.2637	-0.0042	-0.0052	-0.0042	-0.0052	-0.0052	21.1	21.3	179.2	0	0	DISENGD	OFF	34.1016	34.1016	34.1895	34.1895	-0.2539	3.42	3.04	-0.96	2.38	2.28	3.19	-0.125	机场68	机场73	-0.125	250080
4	10	 8:44: 1	-85	4	-8	30	12.25	DOWN	FALSE	FALSE	FALSE	FALSE	FALSE	1.0234	1.0039	0.9688	0.9727	1.0391	0.9961	1	0.9922	1.0078	1.0078	-0.3955	-0.3955	-0.3955	-0.3955	-0.3955	-0.001	-0.001	-0.001	-0.001	-0.001	0.2637	0.2637	0.0042	-0.0042	-0.0042	-0.0042	-0.0042	21.1	21.3	179.1	0	0	DISENGD	OFF	34.1016	34.1016	34.1895	34.1895	-0.2539	-1.72	-2.41	-2.18	2.24	1.91	3.44	-0.0625	机场68	机场73	-0.0625	250080
4	10	 8:44: 2	-85	9	-8	30	12.5	DOWN	FALSE	FALSE	FALSE	FALSE	FALSE	0.9805	0.9844	1.0117	1.0273	0.9922	0.9805	0.9844	0.9961	1.0039	1.0273	-0.3955	-0.3955	-0.3955	-0.3955	-0.3955	-0.001	-0.001	-0.001	-0.001	-0.001	0.2637	0.2637	0.0042	0.0031	0.0042	0.0042	0.0042	21.1	21.3	179	0	0	DISENGD	OFF	34.1016	34.1016	34.1895	34.1895	-0.2637	-3.21	-2.88	-2.17	1.42	1.02	2.08	0.0625	机场68	机场73	0.0625	250080
4	10	 8:44: 3	-85	12	-8	30	12.75	DOWN	FALSE	FALSE	FALSE	FALSE	FALSE	1.0078	1.0391	1.0078	0.9922	0.9805	1.0117	1.0313	1.0039	0.9883	1.0039	-0.3955	-0.3955	-0.3955	-0.3955	-0.3955	-0.001	-0.001	-0.001	-0.001	-0.001	0.1758	0.1758	0.0042	0.0042	0.0042	0.0042	0.0042	21.1	21.3	179	0	0	DISENGD	OFF	34.1016	34.1016	34.1895	34.1895	-0.2637	-2.4	-3.05	-1.49	2.07	2.03	2.04	-0.0625	机场68	机场73	-0.0625	250080
4	10	 8:44: 4	-85	11	-8	30	13	DOWN	FALSE	FALSE	FALSE	FALSE	FALSE	0.9766	0.9883	1.0078	0.9922	1.0234	1	1	0.9805	1	0.9727	-0.3955	-0.3955	-0.3955	-0.3955	-0.3955	-0.001	-0.001	-0.001	-0.001	-0.001	0.1758	0.1758	0.0042	0.0042	0.0052	0.0042	0.0042	21.1	21.3	179.1	0	0	DISENGD	OFF	34.1016	34.1016	34.1895	34.1895	-0.2734	-2.5	-2.67	-3.59	0.61	0.77	0.75	-0.0625	机场68	机场73	-0.0625	250080
4	10	 8:44: 5	-85	8	-8	30	13.25	DOWN	FALSE	FALSE	FALSE	FALSE	FALSE	0.9922	0.9922	0.9805	0.9883	1.0078	1.0078	1.0195	0.9805	1.0117	0.9961	-0.3516	-0.3955	-0.3516	-0.3516	-0.3516	-0.001	-0.001	-0.001	-0.001	-0.001	0.1758	0.1758	0.0042	0.0042	0.0042	0.0052	0.0042	21.1	21.2	179.2	0	0	DISENGD	OFF	34.1016	34.1016	34.1895	34.1895	-0.2734	-3.03	-3.25	-2.04	-1.23	-1.32	-1.27	-0.0625	机场68	机场73	-0.0625	250080
4	10	 8:44: 6	-85	5	-8	30	13.5	DOWN	FALSE	FALSE	FALSE	FALSE	FALSE	1.0117	1.0195	0.9922	0.9453	1.0156	0.9961	1.0039	0.9766	0.9766	0.9922	-0.3516	-0.3516	-0.3516	-0.3516	-0.3516	-0.001	-0.001	-0.001	-0.001	-0.001	0.1758	0.1758	-0.001	-0.001	0	0.0031	0.0042	21.1	21.2	179.3	0	0	DISENGD	OFF	34.1016	34.1016	34.1895	34.1895	-0.1602	-1.98	-1.8	-0.65	2.88	2.87	3.38	-0.0625	机场68	机场73	-0.0625	250080
4	10	 8:44: 7	-85	2	-8	30	13.5	DOWN	FALSE	FALSE	FALSE	FALSE	FALSE	1.0195	0.9844	0.9727	0.9883	1.0273	1.0117	0.9648	0.9648	1.0234	1.0273	-0.3516	-0.3516	-0.3516	-0.3516	-0.3516	-0.001	-0.001	-0.001	-0.001	-0.001	0.1758	0.1758	-0.001	-0.001	-0.001	-0.001	-0.001	21.1	21.3	179.4	0	0	DISENGD	OFF	34.0576	34.0576	34.1895	34.1895	-0.1602	-2.77	-2.92	-1.21	1.3	1.37	1.03	-0.125	机场68	机场73	-0.125	250080
4	10	 8:44: 8	-85	0	-8	30	13.75	DOWN	FALSE	FALSE	FALSE	FALSE	FALSE	1.0117	0.9883	1.0195	0.9414	0.9727	1	0.9922	1.0039	1.0195	1.0234	-0.3516	-0.3516	-0.3516	-0.3516	-0.3516	-0.001	-0.001	-0.001	-0.001	-0.001	0.1758	0.1758	0.0052	0.0052	0.0052	0.0052	0.001	21.1	21.3	179.4	0	0	DISENGD	OFF	34.0576	34.0576	34.1895	34.1895	-0.1699	-4.1	-3.73	1.92	4.08	4.25	4.2	0.0625	机场68	机场73	0.0625	250080
4	10	 8:44: 9	-85	-1	-8	30	14	DOWN	FALSE	FALSE	FALSE	FALSE	FALSE	1.0195	0.9727	0.9883	0.9805	1.0195	0.9844	0.9844	0.9648	0.9844	0.9961	-0.3516	-0.3516	-0.3516	-0.3516	-0.3516	-0.001	-0.001	-0.001	-0.001	-0.001	0.0879	0.1758	0.0052	0.0052	0.0052	0.0052	0.0052	21.1	21.3	179.3	0	0	DISENGD	OFF	34.0576	34.0576	34.1895	34.1895	-0.1699	-0.2	0.31	-1.88	4.01	3.33	3.57	0	机场68	机场73	0	250080
4	10	 8:44:10	-85	-1	-8	30	14.25	DOWN	FALSE	FALSE	FALSE	FALSE	FALSE	1.0078	1.0469	1.043	0.9844	0.957	0.9727	1.0117	1.0117	0.9688	1.0391	-0.3516	-0.3516	-0.3516	-0.3516	-0.3516	-0.001	-0.001	-0.001	-0.001	-0.001	0.0879	0.0879	0.0052	0.0052	0.0052	0.0052	0.0052	21.2	21.3	179.2	0	0	DISENGD	OFF	34.0576	34.0576	34.1895	34.1895	-0.2402	-3.37	-3.67	-2.85	4.62	3.82	4.68	0	机场68	机场73	0	250080
4	10	 8:44:11	-85	-1	-8	30	14.5	DOWN	FALSE	FALSE	FALSE	FALSE	FALSE	1.0273	1.0273	0.9844	0.9766	1.0078	1.0117	1.0117	0.9609	0.9766	0.9922	-0.3516	-0.3516	-0.3516	-0.3516	-0.3516	-0.001	-0.001	-0.001	-0.001	-0.001	0.0879	0.0879	0.0052	0.0052	0.0052	0.0052	0.0052	21.2	21.3	179.2	0	0	DISENGD	OFF	34.0576	34.0576	34.1895	34.1895	-0.2402	-2.88	-2.94	-2.45	3.01	3.05	2.3	-0.0625	机场68	机场73	-0.0625	250080
4	10	 8:44:12	-85	-1	-8	30	14.75	DOWN	FALSE	FALSE	FALSE	FALSE	FALSE	0.9961	1.0273	1	0.9922	0.9883	0.9922	0.9922	0.9844	0.9727	1.0078	-0.3955	-0.3955	-0.3955	-0.3955	-0.3955	-0.001	-0.001	-0.001	-0.001	-0.001	0.0879	0.0879	0.0052	0.0052	0.0052	0.0052	0.0052	21.3	21.3	179.2	0	0	DISENGD	OFF	34.0576	34.0576	34.1895	34.1895	0.043	-3.02	-3.23	-3.33	2.03	2.11	2.02	0	机场68	机场73	0	250080
4	10	 8:44:13	-85	0	-8	30	15	DOWN	FALSE	FALSE	FALSE	FALSE	FALSE	0.9766	0.9648	1.0078	1	0.9844	0.9844	1.0039	0.9961	1.0156	1.0039	-0.3955	-0.3955	-0.3955	-0.3955	-0.3955	-0.001	-0.001	-0.001	-0.001	-0.001	0.0879	0.0879	0.0052	0.0052	0.0052	0.0052	0.0052	21.2	21.3	179.1	0	0	DISENGD	OFF	34.0576	34.0576	34.1895	34.1895	0.043	-3.14	-3.12	-1.33	0	0.92	0.05	0	机场68	机场73	0	250080
4	10	 8:44:14	-85	0	-8	30	15	DOWN	FALSE	FALSE	FALSE	FALSE	FALSE	1.0156	0.9961	1.0234	0.9922	0.9766	0.9805	1.0234	1.0195	0.9883	0.9844	-0.3955	-0.3955	-0.4395	-0.4395	-0.4395	-0.001	-0.001	-0.001	-0.001	-0.001	-0.1758	-0.0879	0.0052	0.0052	0.0052	0.0052	0.0052	21.2	21.4	179.1	0	0	DISENGD	OFF	34.0576	34.0576	34.1895	34.1895	-0.082	-1.94	-2.47	-1.08	3.72	3.79	3.32	0	机场68	机场73	0	250080
4	10	 8:44:15	-85	0	-8	30	15.25	DOWN	FALSE	FALSE	FALSE	FALSE	FALSE	1.0234	1.0195	1.0313	0.9883	1	0.9844	0.9805	0.9961	1	1.0039	-0.3955	-0.3955	-0.3955	-0.3955	-0.3955	-0.001	-0.001	-0.001	-0.001	-0.001	0	0	0.0063	0.0052	0.0052	0.0052	0.0052	21.2	21.3	179.1	0	0	DISENGD	OFF	34.0576	34.0576	34.1895	34.1895	-0.082	-0.68	-1.67	1.46	1.62	3.2	0.2	0	机场68	机场73	0	250080
4	10	 8:44:16	-85	0	-8	30	15.5	DOWN	FALSE	FALSE	FALSE	FALSE	FALSE	1.0117	1.0078	0.9766	0.9648	0.9961	0.9961	1.0156	0.9922	0.9922	0.9766	-0.3955	-0.3955	-0.3955	-0.3955	-0.3516	-0.001	-0.001	-0.001	-0.001	-0.001	0	0	0.0052	0.0052	0.0063	0.0063	0.0063	21.1	21.3	179	0	0	DISENGD	OFF	34.0576	34.0576	34.1895	34.1895	-0.2441	0.96	1.26	0.87	1.12	1.74	1	0.0625	机场68	机场73	0.0625	250080
4	10	 8:44:17	-85	0	-8	30	15.75	DOWN	FALSE	FALSE	FALSE	FALSE	FALSE	1.0039	0.9883	0.9883	0.9961	0.9844	1.0234	0.9688	1.0156	1.0039	0.9961	-0.3955	-0.3516	-0.3516	-0.3516	-0.3516	-0.001	-0.001	-0.001	-0.001	-0.001	0	0	0.0052	0.0052	0.0052	0.0042	0.0042	21.1	21.3	178.9	0	0	DISENGD	OFF	34.0576	34.0576	34.1895	34.1895	-0.2441	-2.32	-1.76	-1.97	2.85	3.54	2.63	0	机场68	机场73	0	250080
4	10	 8:44:18	-85	0	-8	30	16	DOWN	FALSE	FALSE	FALSE	FALSE	FALSE	1.0078	0.9609	0.9883	0.9688	1.0117	0.9805	1.0078	1.0273	1.0195	1.0234	-0.3516	-0.3516	-0.3516	-0.3516	-0.3516	-0.001	-0.001	-0.001	-0.001	-0.001	0.0879	0.0879	0.0052	0.0052	0.0052	0.0052	0.0052	21.1	21.2	178.9	0	0	DISENGD	OFF	34.0576	34.0576	34.1895	34.1895	-0.2617	-3.13	-2.96	-3.34	4.15	3.49	2.8	-0.0625	机场68	机场73	-0.0625	250080
4	10	 8:44:19	-86	8	-8	30	16.25	DOWN	FALSE	FALSE	FALSE	FALSE	FALSE	1.0039	0.9844	0.9844	1.0078	1.0156	1	1.0313	1.0117	0.9766	1.0039	-0.3516	-0.3516	-0.3516	-0.3516	-0.3516	-0.001	-0.001	-0.001	-0.001	-0.001	0.0879	0.0879	0.0063	0.0052	0.0052	0.0052	0.0052	21.1	21.2	178.9	0	0	DISENGD	OFF	34.1016	34.1016	34.1895	34.1895	-0.2617	-2.67	-2.79	-2.99	4.53	4.18	4.22	0.125	机场68	机场73	0.125	250080
4	10	 8:44:20	-86	14	-8	30	16.5	DOWN	FALSE	FALSE	FALSE	FALSE	FALSE	1.0195	0.9883	1	1.0039	1.0195	1	1	1	1.0039	0.9961	-0.3516	-0.3516	-0.3516	-0.3516	-0.3516	-0.001	-0.001	-0.001	-0.001	-0.001	0.1758	0.0879	0.0052	0.0052	0.0052	0.0052	0.0052	21.1	21.2	178.9	0	0	DISENGD	OFF	34.0576	34.0576	34.1895	34.1895	-0.2637	-3.52	-3.25	-2.78	1.97	2.26	1.17	-0.0625	机场68	机场73	-0.0625	250080
4	10	 8:44:21	-86	15	-8	30	16.5	DOWN	FALSE	FALSE	FALSE	FALSE	FALSE	1.0273	0.957	1	1	0.9961	0.9766	0.957	1.0039	1.0234	1	-0.3516	-0.3516	-0.3516	-0.3516	-0.3516	-0.001	-0.001	-0.001	-0.001	-0.001	0.1758	0.0879	0.0063	0.0052	0.0052	0.0052	0.0052	21.1	21.2	178.9	0	0	DISENGD	OFF	34.0576	34.0576	34.1895	34.1895	-0.2637	1.62	0.7	-1.18	4.47	4.03	3.69	-0.1875	机场68	机场73	-0.1875	250080
4	10	 8:44:22	-86	13	-8	30	16.75	DOWN	FALSE	FALSE	FALSE	FALSE	FALSE	1.0039	0.9922	1.0117	1.0273	1.0039	0.9688	1	1.0117	1.0195	0.9883	-0.3516	-0.3516	-0.3516	-0.3516	-0.3516	-0.001	-0.001	-0.001	-0.001	-0.001	0.1758	0.1758	0.0052	0.0052	0.0052	0.0052	0.0052	21.1	21.2	178.8	0	0	DISENGD	OFF	34.0576	34.0576	34.1895	34.1895	-0.2656	6.83	7.05	-3.6	3.34	3.79	3.17	-0.25	机场68	机场73	-0.25	250080
4	10	 8:44:23	-86	9	-8	30	17	DOWN	FALSE	FALSE	FALSE	FALSE	FALSE	1.0078	0.9766	1.0195	0.9844	1.0117	0.9844	1.0234	1	1	1.0117	-0.3516	-0.3516	-0.3516	-0.3516	-0.3516	-0.001	-0.001	-0.001	-0.001	-0.001	0.1758	0.1758	0.0052	0.0052	0.0063	0.0052	0.0052	21.1	21.3	178.8	0	0	DISENGD	OFF	34.0576	34.0576	34.1895	34.1895	-0.2656	-0.19	-0.51	-1.79	1.46	2.49	1.42	0.0625	机场68	机场73	0.0625	250080
4	10	 8:44:24	-86	5	-8	30	17.25	DOWN	FALSE	FALSE	FALSE	FALSE	FALSE	0.9922	0.9844	1.0195	0.9961	1	1.0039	0.9883	0.9961	0.9961	0.9805	-0.3516	-0.3516	-0.3516	-0.3516	-0.3516	-0.001	-0.001	-0.001	-0.001	-0.001	0.1758	0.1758	0.0063	0.0063	0.0063	0.0063	0.0052	21.1	21.3	178.8	0	0	DISENGD	OFF	34.1016	34.1016	34.1895	34.1895	-0.2656	-2.54	-2.57	-2.92	4.06	3.82	3.81	-0.0625	机场68	机场73	-0.0625	250080
4	10	 8:44:25	-87	9	-8	30	17.5	DOWN	FALSE	FALSE	FALSE	FALSE	FALSE	1.0313	1.0469	1.0117	0.9805	0.9766	1.0313	1.0234	1.0078	0.9727	0.957	-0.3076	-0.3076	-0.3076	-0.3076	-0.3076	-0.001	-0.001	-0.001	-0.001	-0.001	0.1758	0.1758	0.0063	0.0063	0.0063	0.0052	0.0063	21.1	21.3	178.7	0	0	DISENGD	OFF	34.1016	34.1016	34.1895	34.1895	-0.2656	-3.29	-3.23	-1.26	3.96	4.61	3.74	-0.0625	机场68	机场73	-0.0625	250080
4	10	 8:44:26	-86	5	-8	30	17.5	DOWN	FALSE	FALSE	FALSE	FALSE	FALSE	0.9844	0.9883	0.9648	0.9922	1.0313	1.0078	0.9922	1.0039	0.9648	0.9609	-0.3076	-0.3076	-0.3516	-0.3516	-0.3516	-0.001	-0.001	-0.001	-0.001	-0.001	-0.0879	0.0879	0.0063	0.0063	0.0052	0.0052	0.0063	21.1	21.2	178.7	0	0	DISENGD	OFF	34.1016	34.1016	34.1895	34.1895	-0.2656	-1.78	-1.91	-2.58	1.47	2.35	1.5	0	机场68	机场73	0	250080
4	10	 8:44:27	-86	0	-8	30	17.75	DOWN	FALSE	FALSE	FALSE	FALSE	FALSE	0.9961	1	1.0078	1.0078	0.9922	1	1.0078	1.0195	0.9961	1.0117	-0.3516	-0.3516	-0.3076	-0.3076	-0.3076	-0.001	-0.001	-0.001	-0.001	-0.001	0	0.0879	0.0052	0.0063	0.0063	0.0063	0.0052	21.2	21.2	178.7	0	0	DISENGD	OFF	34.1016	34.1016	34.1895	34.1895	-0.2656	2.81	3.08	-1.75	2.38	2.63	2.68	-0.0625	机场68	机场73	-0.0625	250080
4	10	 8:44:28	-87	4	-8	30	18	DOWN	FALSE	FALSE	FALSE	FALSE	FALSE	0.9844	0.9883	1.0195	1.0117	0.9727	0.9844	1.0117	1.0078	0.9961	0.9922	-0.3076	-0.3076	-0.3076	-0.3076	-0.3076	-0.001	-0.001	-0.001	-0.001	-0.001	0	0	0.0063	0.0063	0.0063	0.0063	0.0063	21.1	21.2	178.7	0	0	DISENGD	OFF	34.1016	34.1016	34.1895	34.1895	-0.2656	0.9	0.21	-2.92	4.78	3.55	2.91	0.0625	机场68	机场73	0.0625	250080
4	10	 8:44:29	-87	8	-8	30	18.25	DOWN	FALSE	FALSE	FALSE	FALSE	FALSE	0.9844	1.0156	0.9766	1.0195	1.0156	0.9766	0.9961	1	0.9688	0.9766	-0.3076	-0.3076	-0.3076	-0.2637	-0.2637	-0.001	-0.001	-0.001	-0.001	-0.001	0	0	0.0063	0.0063	0.0063	0.0063	0.0063	21.2	21.2	178.8	0	0	DISENGD	OFF	34.1016	34.1016	34.1895	34.1895	-0.2656	-2.38	-2.5	-3	0.99	2.9	0.19	-0.125	机场68	机场73	-0.125	250080
4	10	 8:44:30	-86	3	-8	30	18.5	DOWN	FALSE	FALSE	FALSE	FALSE	FALSE	0.9961	0.9844	0.9883	0.9688	1.0117	0.9922	0.9648	1.0117	1.0547	1.0156	-0.2637	-0.2637	-0.2637	-0.2637	-0.2637	-0.001	-0.001	-0.001	-0.001	-0.001	0.0879	0.0879	0.0063	0.0063	0.0063	0.0052	0.0063	21.1	21.2	178.9	0	0	DISENGD	OFF	34.1016	34.1016	34.1895	34.1895	-0.2656	-2.72	-2.79	-2.36	0.03	1.01	-1.05	-0.1875	机场68	机场73	-0.1875	250080
4	10	 8:44:31	-86	-4	-8	30	18.5	DOWN	FALSE	FALSE	FALSE	FALSE	FALSE	1	0.9883	0.9766	0.9922	1.0234	1.0117	0.9844	1.0039	0.9844	0.9922	-0.2637	-0.2637	-0.2637	-0.2637	-0.2637	-0.001	-0.001	-0.001	-0.001	-0.001	0.0879	0.0879	0.0063	0.0052	0.0063	0.0063	0.0052	21.1	21.2	178.9	0	0	DISENGD	OFF	34.1016	34.1016	34.1895	34.1895	-0.2656	-1.61	-2.09	2.56	1.02	1.78	0.99	0	机场68	机场73	0	250080
4	10	 8:44:32	-87	-1	-8	30	18.75	DOWN	FALSE	FALSE	FALSE	FALSE	FALSE	1.0117	0.9805	1.0117	0.9805	0.9609	0.9961	0.9844	0.9961	1.0039	1.0352	-0.2637	-0.2637	-0.2637	-0.2637	-0.3076	-0.001	-0.001	-0.001	-0.001	-0.001	0	0	0.0052	0.0052	0.0063	0.0063	0.0063	21.1	21.2	179.1	0	0	DISENGD	OFF	34.1016	34.1016	34.1895	34.1895	-0.2637	5	4.12	-0.37	-1.38	1.06	-1.39	0	机场68	机场73	0	250080
4	10	 8:44:32	-87	5	-8	30	19	DOWN	FALSE	FALSE	FALSE	FALSE	FALSE	1.0078	1.0039	1.0195	0.9727	0.9844	0.9922	0.9883	1.0352	0.9922	1	-0.3076	-0.3076	-0.3076	-0.3076	-0.3076	-0.001	-0.001	-0.001	-0.001	-0.001	0.0879	0	0.0063	0.0052	0.0063	0.0052	0.0063	21.1	21.2	179.2	0	0	DISENGD	OFF	34.0576	34.0576	34.1895	34.1895	-0.2637	-2.07	-2.11	-3.01	0.3	1.19	-0.24	0	机场68	机场73	0	250080
4	10	 8:44:33	-86	0	-8	30	19	DOWN	FALSE	FALSE	FALSE	FALSE	FALSE	1.0039	0.9883	1.0078	1	0.9688	1.0078	1	0.9766	1.0117	1.0078	-0.3076	-0.2637	-0.3076	-0.3076	-0.3076	-0.001	-0.001	-0.001	-0.001	-0.001	0	0	0.0052	0.0063	0.0063	0.0052	0.0052	21.1	21.2	179.2	0	0	DISENGD	OFF	34.0576	34.0576	34.1895	34.1895	-0.2617	-1.73	-2.05	-0.48	1.39	2.05	1.5	0	机场68	机场73	0	250080
4	10	 8:44:34	-87	2	-8	30	19.25	DOWN	FALSE	FALSE	FALSE	FALSE	FALSE	0.9922	1.0039	1.0195	0.9883	0.9766	1.0117	0.9766	0.9961	1.0078	0.9922	-0.3076	-0.3076	-0.3076	-0.2637	-0.3076	-0.001	-0.001	-0.001	-0.001	-0.001	0.0879	0.0879	0.0052	0.0063	0.0052	0.0063	0.0063	21.1	21.2	179.3	0	0	DISENGD	OFF	34.0576	34.0576	34.1895	34.1895	-0.2617	0.89	0.89	-2.41	4.24	3.95	3.32	0	机场68	机场73	0	250080
4	10	 8:44:35	-87	5	-8	30	19.5	DOWN	FALSE	FALSE	FALSE	FALSE	FALSE	1.0313	0.9805	1.0039	0.9961	1.0195	0.9961	1.0117	1.0352	0.9805	0.9531	-0.2637	-0.3076	-0.2637	-0.2637	-0.2637	-0.001	-0.001	-0.001	-0.001	-0.001	0.0879	0.0879	0.0052	0.0052	0.0063	0.0052	0.0063	21.1	21.3	179.3	0	0	DISENGD	OFF	34.0576	34.0576	34.1895	34.1895	-0.2637	4.15	3.92	-2.47	0.82	2.84	0.22	0	机场68	机场73	0	250080
4	10	 8:44:36	-87	7	-8	30	19.5	DOWN	FALSE	FALSE	FALSE	FALSE	FALSE	0.9961	1	0.9688	1.0273	1.0156	0.9844	0.9844	0.9805	0.9883	0.9844	-0.2637	-0.2637	-0.2637	-0.2637	-0.2637	-0.001	-0.001	-0.001	-0.001	-0.001	0.0879	0.0879	0.0063	0.0063	0.0063	0.0063	0.0063	21.1	21.3	179.3	0	0	DISENGD	OFF	34.0576	34.0576	34.1895	34.1895	-0.2637	-0.95	-0.64	-1.71	-0.66	0.24	-0.76	0.125	机场68	机场73	0.125	250080
4	10	 8:44:37	-87	6	-8	30	19.75	DOWN	FALSE	FALSE	FALSE	FALSE	FALSE	1.0156	1.0273	1.0234	0.9922	0.9922	0.9805	0.9844	0.9805	0.9805	1.0273	-0.2637	-0.2637	-0.2637	-0.2637	-0.2637	-0.001	-0.001	-0.001	-0.001	-0.001	0.0879	0.0879	0.0063	0.0063	0.0052	0.0052	0.0063	21.1	21.3	179.2	0	0	DISENGD	OFF	34.0576	34.0576	34.1895	34.1895	-0.2656	-0.67	-0.84	-0.61	0.32	1.25	-1.33	-0.1875	机场68	机场73	-0.1875	250080
4	10	 8:44:38	-87	5	-8	30	20	DOWN	FALSE	FALSE	FALSE	FALSE	FALSE	1.0117	1.0156	0.9648	1	0.9844	1.0156	0.9766	0.9766	1.0039	0.9922	-0.2637	-0.2637	-0.2637	-0.3076	-0.3076	-0.001	-0.001	-0.001	-0.001	-0.001	0	0.0879	0.0063	0.0063	0.0063	0.0052	0.0052	21.1	21.3	179.1	0	0	DISENGD	OFF	34.0576	34.0576	34.1895	34.1895	-0.2656	3.5	3.04	-2.43	0.51	1.55	0.24	-0.125	机场68	机场73	-0.125	250080
4	10	 8:44:39	-87	3	-8	30	20.25	DOWN	FALSE	FALSE	FALSE	FALSE	FALSE	1.0195	0.9883	0.9883	0.9727	1.0117	1.0391	1	1	0.9805	1.0078	-0.3076	-0.3076	-0.3076	-0.3076	-0.3076	-0.001	-0.001	-0.001	-0.001	-0.001	0	0.0879	0.0063	0.0063	0.0063	0.0063	0.0063	21.1	21.3	179.1	0	0	DISENGD	OFF	34.0576	34.0576	34.1895	34.1895	-0.2656	-1.27	-0.79	-0.5	0.49	0.11	0.05	0.0625	机场68	机场73	0.0625	250080
4	10	 8:44:40	-87	1	-8	30	20.25	DOWN	FALSE	FALSE	FALSE	FALSE	FALSE	1.0078	0.9883	0.9961	0.9688	1.0195	0.9961	0.9883	0.9766	1.0313	1.0039	-0.3076	-0.3076	-0.3076	-0.3076	-0.3076	-0.001	-0.001	-0.001	-0.001	-0.001	0	0.0879	0.0063	0.0063	0.0063	0.0052	0.0052	21.1	21.3	179	0	0	DISENGD	OFF	34.0576	34.0576	34.1895	34.1895	-0.2656	0.01	0.01	0.01	-0.05	-0.06	-0.07	-0.0625	机场68	机场73	-0.0625	250080
4	10	 8:44:41	-87	0	-8	30	20.5	DOWN	FALSE	FALSE	FALSE	FALSE	FALSE	1.0195	1.0078	0.9961	1	0.9922	1.0234	0.9883	0.9844	0.9805	0.9883	-0.3076	-0.3076	-0.3076	-0.3076	-0.3076	-0.001	-0.001	-0.001	-0.001	-0.001	0.0879	0.0879	0.0063	0.0063	0.0063	0.0052	0.0063	21.1	21.3	179	0	0	DISENGD	OFF	34.0576	34.0576	34.1895	34.1895	-0.2656	0.01	0	0	-0.02	-0.01	0	-0.0625	机场68	机场73	-0.0625	250080
4	10	 8:44:42	-87	-1	-8	30	20.75	DOWN	FALSE	FALSE	FALSE	FALSE	FALSE	1.0352	1.0273	0.9805	0.9805	0.9922	0.9961	0.9727	0.9961	1.0117	1.0078	-0.3076	-0.3076	-0.3076	-0.3076	-0.3076	-0.001	-0.001	-0.001	-0.001	-0.001	0.0879	0.0879	0.0063	0.0063	0.0063	0.0063	0.0063	21.1	21.3	178.9	0	0	DISENGD	OFF	34.0576	34.0576	34.1895	34.1895	-0.2656	0	0	0	0	0	0	-0.0625	机场68	机场73	-0.0625	250080
4	10	 8:44:43	-87	-1	-8	30	20.75	DOWN	FALSE	FALSE	FALSE	FALSE	FALSE	0.9961	1.0234	0.9883	1.0078	0.9922	1.0039	0.9844	0.9961	0.9961	0.9609	-0.3076	-0.3076	-0.3076	-0.3076	-0.3076	-0.001	-0.001	-0.001	-0.001	-0.001	0	0.0879	0.0063	0.0063	0.0063	0.0063	0.0063	21.1	21.3	178.9	0	0	DISENGD	OFF	34.0576	34.0576	34.1895	34.1895	-0.2656	0.02	-0.04	-0.04	0.26	0.07	0.13	0	机场68	机场73	0	250080
4	10	 8:44:44	-87	-1	-8	30	21	DOWN	FALSE	FALSE	FALSE	FALSE	FALSE	1.0117	0.9883	0.9727	1.0117	1.0078	1	0.9609	1.0039	1.0313	0.9766	-0.3076	-0.3076	-0.3076	-0.3076	-0.3076	-0.001	-0.001	-0.001	-0.001	-0.001	0	0.0879	0.0063	0.0063	0.0052	0.0063	0.0063	21.1	21.3	178.9	0	0	DISENGD	OFF	34.0576	34.0576	34.1895	34.1895	-0.2656	-1.52	-2.06	2.12	0.9	1.91	0.74	0.0625	机场68	机场73	0.0625	250080
4	10	 8:44:45	-87	0	-8	30	21.25	DOWN	FALSE	FALSE	FALSE	FALSE	FALSE	0.9727	1.0117	1.0195	1.0117	0.9922	0.9883	1	1.0156	1	1.0117	-0.3076	-0.3076	-0.3076	-0.3076	-0.3076	-0.001	-0.001	-0.001	-0.001	-0.001	0	0	0.0063	0.0063	0.0063	0.0063	0.0063	21.1	21.3	178.9	0	0	DISENGD	OFF	34.0576	34.0576	34.1895	34.1895	-0.2695	5.09	4.69	0.46	4.41	4.92	3.1	0	机场68	机场73	0	250080
4	10	 8:44:46	-88	8	-8	30	21.25	DOWN	FALSE	FALSE	FALSE	FALSE	FALSE	1.0117	1.0078	1	0.9805	1.0352	1.0078	1	0.9805	0.9766	0.9727	-0.3076	-0.3076	-0.3076	-0.3076	-0.3076	-0.001	-0.001	-0.001	-0.001	-0.001	0	0	0.0063	0.0063	0.0063	0.0063	0.0063	21.1	21.3	178.9	0	0	DISENGD	OFF	34.1016	34.1016	34.1895	34.1895	-0.2695	-0.59	-1.13	-3.33	1.9	2.96	0.33	-0.125	机场68	机场73	-0.125	250080
4	10	 8:44:47	-87	6	-8	30	21.5	DOWN	FALSE	FALSE	FALSE	FALSE	FALSE	0.9805	0.9648	0.9805	1.0156	1.0156	0.9922	0.9961	1.0039	1.0039	0.9805	-0.3076	-0.3076	-0.3076	-0.3076	-0.3076	-0.001	-0.001	-0.001	-0.001	-0.001	0.0879	0	0.0063	0.0063	0.0063	0.0052	0.0063	21.1	21.3	178.9	0	0	DISENGD	OFF	34.0576	34.0576	34.1895	34.1895	-0.2695	-2.02	-2.22	-2.12	4.04	4.17	4.27	0	机场68	机场73	0	250080
4	10	 8:44:48	-87	2	-8	30	21.75	DOWN	FALSE	FALSE	FALSE	FALSE	FALSE	0.9883	1	1.0078	1.0195	0.9961	0.9805	0.9961	1.0039	0.9844	1.0273	-0.3076	-0.3076	-0.3076	-0.3076	-0.3076	-0.001	-0.001	-0.001	-0.001	-0.001	0.0879	0.0879	0.0063	0.0063	0.0063	0.0063	0.0063	21.1	21.3	179	0	0	DISENGD	OFF	34.0576	34.0576	34.1895	34.1895	-0.2695	3.06	3.07	0.45	4.09	3.81	4.88	0.0625	机场68	机场73	0.0625	250080
4	10	 8:44:49	-87	-2	-8	30	21.75	DOWN	FALSE	FALSE	FALSE	FALSE	FALSE	1	0.9844	1	0.9883	1.0156	1.0078	1.0156	0.9766	1.0313	0.9805	-0.3076	-0.3076	-0.3076	-0.3076	-0.3076	-0.001	-0.001	-0.001	-0.001	-0.001	0.0879	0.0879	0.0063	0.0063	0.0063	0.0063	0.0063	21.1	21.3	179	0	0	DISENGD	OFF	34.0576	34.0576	34.1895	34.1895	-0.2656	-0.18	0.25	-2	3.46	3.6	4.24	0	机场68	机场73	0	250080
4	10	 8:44:50	-88	4	-8	30	22	DOWN	FALSE	FALSE	FALSE	FALSE	FALSE	1.0195	0.9883	0.9531	0.9805	1.0273	1.0039	0.9883	0.9688	1.0391	1.0234	-0.3076	-0.3076	-0.3076	-0.3076	-0.3076	-0.001	-0.001	-0.001	-0.001	-0.001	0	0.0879	0.0063	0.0063	0.0063	0.0063	0.0063	21.1	21.2	179	0	0	DISENGD	OFF	34.0576	34.0576	34.1895	34.1895	-0.2656	-1.06	-1.28	0.17	4.84	4.4	3.7	0.0625	机场68	机场73	0.0625	250080
4	10	 8:44:51	-88	9	-8	30	22.25	DOWN	FALSE	FALSE	FALSE	FALSE	FALSE	1.0117	1.0195	1.0156	1.0117	0.9961	0.9922	0.9883	1.0273	0.9609	1.0039	-0.3076	-0.3076	-0.3076	-0.3076	-0.3076	-0.001	-0.001	-0.001	-0.001	-0.001	0.0879	0.0879	0.0063	0.0063	0.0063	0.0063	0.0063	21.1	21.3	178.9	0	0	DISENGD	OFF	34.1016	34.1016	34.1895	34.1895	-0.2656	3.41	3.54	0.63	2.98	3.73	2.22	0	机场68	机场73	0	250080
4	10	 8:44:52	-87	4	-8	30	22.25	DOWN	FALSE	FALSE	FALSE	FALSE	FALSE	0.9961	0.9844	0.9766	1.0156	1.0156	0.9766	0.957	0.9961	1.0156	0.9922	-0.3076	-0.3076	-0.3076	-0.3076	-0.3076	-0.001	-0.001	-0.001	-0.001	-0.001	0	0	0.0063	0.0063	0.0063	0.0063	0.0063	21.1	21.2	178.9	0	0	DISENGD	OFF	34.1016	34.1016	34.1895	34.1895	-0.2656	0.91	0.94	0.25	2.21	2.91	1.6	-0.0625	机场68	机场73	-0.0625	250080
4	10	 8:44:53	-88	5	-8	30	22.5	DOWN	FALSE	FALSE	FALSE	FALSE	FALSE	0.957	1.0039	0.9922	1.0195	0.9922	0.9844	1.0156	1	0.9844	0.9883	-0.3076	-0.3076	-0.3076	-0.3076	-0.3076	-0.001	-0.001	-0.001	-0.001	-0.001	0.0879	0.0879	0.0063	0.0063	0.0063	0.0063	0.0063	21.1	21.2	178.9	0	0	DISENGD	OFF	34.1016	34.1016	34.1895	34.1895	-0.2676	2.18	2	3.06	4.18	4.78	3.92	0.0625	机场68	机场73	0.0625	250080
4	10	 8:44:54	-88	7	-8	30	22.75	DOWN	FALSE	FALSE	FALSE	FALSE	FALSE	0.9844	1.0117	1.0234	0.9766	0.9727	1.0078	1.0352	1.0273	1.0039	0.9492	-0.3076	-0.3076	-0.3076	-0.3076	-0.3076	-0.001	-0.001	-0.001	-0.001	-0.001	0.0879	0.0879	0.0063	0.0063	0.0063	0.0063	0.0063	21.1	21.3	178.9	0	0	DISENGD	OFF	34.1016	34.1016	34.1895	34.1895	-0.2676	2.1	1.85	-2.14	4.63	4.43	3.99	-0.125	机场68	机场73	-0.125	250080
4	10	 8:44:55	-88	7	-8	30	22.75	DOWN	FALSE	FALSE	FALSE	FALSE	FALSE	1	0.9922	0.9961	1.0234	1.0039	1.0039	1	1.0195	0.9844	0.9844	-0.3076	-0.3076	-0.2637	-0.2637	-0.2637	-0.001	-0.001	-0.001	-0.001	-0.001	0.0879	0.0879	0.0063	0.0063	0.0063	0.0063	0.0063	21.1	21.3	179	0	0	DISENGD	OFF	34.1016	34.1016	34.1895	34.1895	-0.2695	-0.56	-0.77	-1.33	4	3.81	4.89	0	机场68	机场73	0	250080
4	10	 8:44:56	-88	6	-8	30	23	DOWN	FALSE	FALSE	FALSE	FALSE	FALSE	0.957	0.9805	1.0195	1.0352	0.9727	0.9922	0.9805	1.0156	1.0156	0.9961	-0.2637	-0.2637	-0.2637	-0.2637	-0.2637	-0.001	-0.001	-0.001	-0.001	-0.001	0.0879	0.0879	0.0063	0.0063	0.0063	0.0063	0.0063	21.1	21.3	179.1	0	0	DISENGD	OFF	34.1016	34.1016	34.1895	34.1895	-0.2695	3.87	4.34	-1.12	4.76	4.15	4.05	0.0625	机场68	机场73	0.0625	250080
4	10	 8:44:57	-88	4	-8	30	23.25	DOWN	FALSE	FALSE	FALSE	FALSE	FALSE	0.9922	0.9961	0.9688	1	1.0195	1.0313	1.0078	0.9961	0.9883	0.9609	-0.2637	-0.2637	-0.2637	-0.2637	-0.2637	-0.001	-0.001	-0.001	-0.001	-0.001	0.0879	0.0879	0.0063	0.0063	0.0063	0.0063	0.0063	21.1	21.3	179.1	0	0	DISENGD	OFF	34.1016	34.1016	34.1895	34.1895	-0.2676	-0.48	-0.68	-0.31	4.81	4.23	3.61	0	机场68	机场73	0	250080
4	10	 8:44:58	-88	2	-8	30	23.25	DOWN	FALSE	FALSE	FALSE	FALSE	FALSE	1.0156	1.0117	0.9883	0.9883	0.9922	1.0352	0.9961	1.0195	0.9766	0.9805	-0.2637	-0.2197	-0.2197	-0.2197	-0.2197	-0.001	-0.001	-0.001	-0.001	-0.001	0.0879	0.0879	0.0063	0.0063	0.0063	0.0063	0.0063	21.2	21.3	179.2	0	0	DISENGD	OFF	34.1016	34.1016	34.1895	34.1895	-0.2676	2.51	2.6	0.18	3.95	3.98	4.26	0	机场68	机场73	0	250080
4	10	 8:44:59	-87	-7	-8	30	23.5	DOWN	FALSE	FALSE	FALSE	FALSE	FALSE	0.9844	1.0156	1.0039	0.9805	0.9805	1	0.9883	0.9961	1.0039	1	-0.2197	-0.2197	-0.2197	-0.2197	-0.2197	-0.001	-0.001	-0.001	-0.001	-0.001	0.0879	0.0879	0.0063	0.0063	0.0063	0.0063	0.0063	21.2	21.3	179.4	0	0	DISENGD	OFF	34.1016	34.0576	34.1895	34.1895	-0.2637	1.12	1.12	1.24	4.2	4.28	4.79	-0.125	机场68	机场73	-0.125	250080
4	10	 8:45: 0	-88	-6	-8	30	23.5	DOWN	FALSE	FALSE	FALSE	FALSE	FALSE	0.9844	1.0039	0.9805	0.9844	1.0039	1.0273	1.0156	0.9727	0.9922	0.9961	-0.2197	-0.2637	-0.2637	-0.2637	-0.2637	-0.001	-0.001	-0.001	-0.001	-0.001	0.1758	0.0879	0.0063	0.0063	0.0063	0.0063	0.0063	21.1	21.3	179.4	0	0	DISENGD	OFF	34.0576	34.0576	34.1895	34.1895	-0.2637	3.19	3.41	1.59	4.28	4.23	4.28	-0.0625	机场68	机场73	-0.0625	250080
4	10	 8:45: 1	-87	-10	-8	30	23.75	DOWN	FALSE	FALSE	FALSE	FALSE	FALSE	0.9961	1.0156	1.0078	1.0078	1.0039	0.9883	0.9844	0.9922	0.9883	1.0156	-0.3076	-0.3076	-0.3076	-0.2637	-0.3076	-0.001	-0.001	-0.001	-0.0021	-0.001	0.2637	0.1758	0.0063	0.0063	0.0063	0.0063	0.0063	21.2	21.3	179.2	0	0	DISENGD	OFF	34.0576	34.0576	34.1895	34.1895	-0.2656	-0.75	-0.38	0.32	4.1	4.12	4.25	-0.0625	机场68	机场73	-0.0625	250080
4	10	 8:45: 2	-88	-5	-8	30	24	DOWN	FALSE	FALSE	FALSE	FALSE	FALSE	0.9805	0.9922	0.9688	0.9766	1.0273	1.0313	0.9922	0.9922	1.0234	0.9648	-0.2637	-0.2637	-0.3076	-0.3076	-0.3076	-0.001	-0.001	-0.001	-0.001	-0.001	0.1758	0.2637	0.0063	0.0063	0.0063	0.0063	0.0063	21.1	21.3	179.1	0	0	DISENGD	OFF	34.0576	34.0576	34.1895	34.1895	-0.2656	2.83	2.74	-0.34	4.02	4.03	4.08	0.0625	机场68	机场73	0.0625	250080
4	10	 8:45: 3	-89	10	-8	30	24	DOWN	FALSE	FALSE	FALSE	FALSE	FALSE	1.0039	1.0039	1.0078	1.0039	0.9883	1.0117	0.9961	1.0313	0.9961	1	-0.3076	-0.3076	-0.3076	-0.3076	-0.3076	-0.001	-0.001	-0.001	-0.001	-0.001	0.1758	0.1758	0.0063	0.0063	0.0063	0.0063	0.0063	21.1	21.3	179	0	0	DISENGD	OFF	34.0576	34.0576	34.1895	34.1895	-0.2695	1.42	1.16	-1.07	4.27	4.23	4.53	-0.0625	机场68	机场73	-0.0625	250080
4	10	 8:45: 4	-88	12	-8	30	24.25	DOWN	FALSE	FALSE	FALSE	FALSE	FALSE	0.9805	1.043	1.0039	1.0078	1.0039	0.9844	1.0039	0.9883	0.9688	0.9961	-0.3076	-0.2637	-0.2637	-0.2637	-0.2637	-0.001	-0.001	-0.001	-0.001	-0.001	0.1758	0.1758	0.0063	0.0063	0.0063	0.0063	0.0063	21.1	21.3	178.9	0	0	DISENGD	OFF	34.0576	34.0576	34.1895	34.1895	-0.2695	3.39	3.24	1.71	4	4.13	4.34	-0.0625	机场68	机场73	-0.0625	250080
4	10	 8:45: 5	-88	9	-8	30	24.25	DOWN	FALSE	FALSE	FALSE	FALSE	FALSE	1	1.0156	1.0195	0.9922	0.9844	1.0078	0.9922	0.9609	1	1.0117	-0.2637	-0.2637	-0.2637	-0.2637	-0.3076	-0.001	-0.001	-0.001	-0.001	-0.001	0.0879	0.1758	0.0063	0.0063	0.0063	0.0063	0.0063	21.1	21.3	178.9	0	0	DISENGD	OFF	34.0576	34.0576	34.1895	34.1895	-0.2676	-0.31	-0.16	1.7	4.42	4.4	4.69	-0.0625	机场68	机场73	-0.0625	250080
4	10	 8:45: 6	-88	4	-8	30	24.5	DOWN	FALSE	FALSE	FALSE	FALSE	FALSE	1.0156	1.0156	1.0156	0.9961	0.9805	0.9922	1.0273	1	0.9727	0.9844	-0.2637	-0.2637	-0.3076	-0.3076	-0.3076	-0.001	-0.001	-0.001	-0.001	-0.001	0.0879	0.1758	0.0063	0.0063	0.0063	0.0063	0.0063	21.1	21.3	178.9	0	0	DISENGD	OFF	34.0576	34.0576	34.1895	34.1895	-0.2676	2.75	3.1	-0.04	3.83	4.18	3.93	-0.125	机场68	机场73	-0.125	250080
4	10	 8:45: 7	-88	0	-8	30	24.75	DOWN	FALSE	FALSE	FALSE	FALSE	FALSE	0.9648	1	1.0273	1.0117	0.9883	0.9883	0.9883	0.9844	0.9805	0.9961	-0.3076	-0.3076	-0.3076	-0.3076	-0.3076	-0.001	-0.001	-0.001	-0.001	-0.001	0.0879	0.0879	0.0063	0.0063	0.0063	0.0063	0.0063	21.1	21.3	178.9	0	0	DISENGD	OFF	34.0576	34.0576	34.1895	34.1895	-0.2676	1.16	1.33	2.28	4.56	4.51	4.42	-0.0625	机场68	机场73	-0.0625	250080
4	10	 8:45: 8	-89	5	-8	30	24.75	DOWN	FALSE	FALSE	FALSE	FALSE	FALSE	0.9648	0.9883	0.9883	1.0391	0.9844	0.9805	1.0156	0.9883	1.0313	0.9961	-0.3076	-0.3076	-0.3076	-0.3076	-0.3076	-0.001	-0.001	-0.001	-0.001	-0.001	0.0879	0.0879	0.0063	0.0063	0.0063	0.0063	0.0063	21.1	21.3	178.9	0	0	DISENGD	OFF	34.0576	34.0576	34.1895	34.1895	-0.2676	1.4	1.5	0.16	4.87	4.71	4.6	0	机场68	机场73	0	250080
4	10	 8:45: 9	-89	11	-8	30	25	DOWN	FALSE	FALSE	FALSE	FALSE	FALSE	0.9922	1.0313	1.0078	0.9883	0.9688	1.0625	0.9844	1.0039	0.9844	0.9922	-0.3076	-0.2637	-0.3076	-0.2637	-0.3076	-0.001	-0.001	-0.001	-0.001	-0.001	0.0879	0.0879	0.0063	0.0063	0.0063	0.0063	0.0063	21.1	21.3	178.9	0	0	DISENGD	OFF	34.0576	34.0576	34.1895	34.1895	-0.2676	1.75	1.6	1.65	4.51	4.36	4.87	0.0625	机场68	机场73	0.0625	250080
4	10	 8:45:10	-88	5	-8	30	25.25	DOWN	FALSE	FALSE	FALSE	FALSE	FALSE	0.9961	1.0039	0.9766	1.0156	0.9883	0.9883	1	1.0039	1.0156	1	-0.3076	-0.3076	-0.3076	-0.3076	-0.3076	-0.001	-0.001	-0.001	-0.001	-0.001	0.0879	0.0879	0.0063	0.0063	0.0063	0.0063	0.0063	21.1	21.3	178.9	0	0	DISENGD	OFF	34.0576	34.0576	34.1895	34.1895	-0.2676	1.7	1.71	2.45	4.5	4.19	4.35	-0.0625	机场68	机场73	-0.0625	250080
4	10	 8:45:11	-89	5	-8	30	25.25	DOWN	FALSE	FALSE	FALSE	FALSE	FALSE	1	0.9727	0.9766	0.9766	1	1.0195	1	1.0078	1.0156	1.0156	-0.3076	-0.3076	-0.3076	-0.3076	-0.3076	-0.001	-0.001	-0.001	-0.001	-0.001	0.0879	0.0879	0.0063	0.0063	0.0063	0.0063	0.0063	21.1	21.3	178.9	0	0	DISENGD	OFF	34.0576	34.0576	34.1895	34.1895	-0.2695	2.92	2.82	0.45	4.32	4.3	4.55	-0.125	机场68	机场73	-0.125	250080
4	10	 8:45:12	-88	-1	-8	30	25.5	DOWN	FALSE	FALSE	FALSE	FALSE	FALSE	0.9688	1.0195	0.9805	0.9727	0.9727	1.0195	1.0039	1.0156	0.9961	1.0195	-0.3076	-0.3076	-0.3076	-0.3076	-0.3076	-0.001	-0.001	-0.001	-0.001	-0.001	0.0879	0.0879	0.0063	0.0063	0.0063	0.0063	0.0063	21.1	21.3	178.9	0	0	DISENGD	OFF	34.1016	34.1016	34.1895	34.1895	-0.2695	2.25	2.34	1.75	4.38	4.29	4.54	0.0625	机场68	机场73	0.0625	250080
4	10	 8:45:13	-89	1	-8	30	25.75	DOWN	FALSE	FALSE	FALSE	FALSE	FALSE	0.9883	0.9961	1	1.0078	0.9961	1.0156	1.0234	1	0.9922	0.9805	-0.3076	-0.3076	-0.3076	-0.3076	-0.3076	-0.001	-0.001	-0.001	-0.001	-0.001	0.0879	0.0879	0.0063	0.0063	0.0063	0.0063	0.0063	21.1	21.3	178.9	0	0	DISENGD	OFF	34.0576	34.0576	34.1895	34.1895	-0.2695	1.63	1.59	1.7	4.45	4.35	4.43	-0.125	机场68	机场73	-0.125	250080
4	10	 8:45:14	-89	4	-8	30	25.75	DOWN	FALSE	FALSE	FALSE	FALSE	FALSE	0.9336	0.9453	1	1.0195	0.9688	1	0.9648	0.9961	1.0508	1.0195	-0.3076	-0.3076	-0.3076	-0.3076	-0.3076	-0.001	-0.001	-0.001	-0.001	-0.001	0	0.0879	0.0063	0.0063	0.0063	0.0063	0.0063	21.1	21.3	178.9	0	0	DISENGD	OFF	34.0576	34.1016	34.1895	34.1895	-0.2695	2.58	2.57	0.51	4.24	4.22	4.19	0	机场68	机场73	0	250080
4	10	 8:45:15	-89	6	-8	30	26	DOWN	FALSE	FALSE	FALSE	FALSE	FALSE	1.0039	1.0195	1.0313	1.0156	0.9883	0.9961	1.0234	1.0195	0.9844	0.9844	-0.3076	-0.3076	-0.3076	-0.3076	-0.3076	-0.001	-0.001	-0.001	-0.001	-0.001	0	0	0.0063	0.0063	0.0063	0.0063	0.0063	21.1	21.3	178.9	0	0	DISENGD	OFF	34.1016	34.1016	34.1895	34.1895	-0.1895	1.96	1.93	1.23	4.34	4.2	4.78	-0.1875	机场68	机场73	-0.1875	250080
4	10	 8:45:16	-89	6	-8	30	26.25	DOWN	FALSE	FALSE	FALSE	FALSE	FALSE	1.0313	0.9766	0.9805	0.9961	0.9883	0.9961	1.0078	1.0078	0.9766	0.9883	-0.3076	-0.3076	-0.3516	-0.3516	-0.3516	-0.001	-0.001	-0.001	-0.001	-0.001	-0.0879	0	0.0063	0.0063	0.0063	0.0063	0.0063	21.2	21.3	178.9	0	0	DISENGD	OFF	34.1016	34.1016	34.1895	34.1895	-0.1895	3.03	3.17	1.4	4.19	4.26	4.3	0	机场68	机场73	0	250080
4	10	 8:45:17	-89	5	-8	30	26.25	DOWN	FALSE	FALSE	FALSE	FALSE	FALSE	1.0078	1.0039	0.9961	1	1.0352	0.9805	0.9844	0.9805	1.0117	0.9961	-0.3516	-0.3516	-0.3516	-0.3076	-0.3076	-0.001	-0.001	-0.001	-0.001	-0.001	0.0879	0	0.0063	0.0063	0.0063	0.0063	0.0063	21.1	21.3	178.9	0	0	DISENGD	OFF	34.1016	34.1016	34.1895	34.1895	-0.2656	0.45	0.75	0.37	4.17	4.19	4.24	0.0625	机场68	机场73	0.0625	250080
4	10	 8:45:18	-89	3	-8	30	26.25	DOWN	FALSE	FALSE	FALSE	FALSE	FALSE	0.9883	0.9883	1.0234	1.0039	1.0117	1	0.9688	1	1.0039	1.0039	-0.3516	-0.3516	-0.3955	-0.3955	-0.3955	-0.001	-0.001	-0.001	-0.001	-0.001	0.0879	0	0.0063	0.0063	0.0063	0.0063	0.0063	21.1	21.3	179	0	0	DISENGD	OFF	34.1016	34.1016	34.1895	34.1895	-0.2656	3.01	3.03	-1.57	4.51	4.59	4.87	-0.125	机场68	机场73	-0.125	250080
4	10	 8:45:19	-88	-6	-8	30	25.75	DOWN	FALSE	FALSE	FALSE	FALSE	FALSE	0.9844	0.957	1	1.0313	1.0039	0.9688	1.0195	1.0039	1.0039	0.9648	-0.3516	-0.3516	-0.3516	-0.3516	-0.3076	-0.001	-0.001	-0.001	-0.001	-0.001	0.0879	0.0879	0.0063	0.0063	0.0073	0.0063	0.0063	21.1	21.3	179.3	0	0	DISENGD	OFF	34.1016	34.1016	34.1895	34.1895	-0.1953	2.01	2.15	0.67	4.24	4.38	4.64	0.0625	机场68	机场73	0.0625	250080
4	10	 8:45:21	-88	-14	-8	30	25.25	DOWN	FALSE	FALSE	FALSE	FALSE	FALSE	0.9961	1.0078	1.0117	0.9883	0.9805	0.9961	1.043	1.0273	0.9727	0.9844	-0.3076	-0.3076	-0.3076	-0.3076	-0.3076	-0.001	-0.001	-0.001	-0.001	-0.001	0.0879	0.0879	0.0063	0.0063	0.0063	0.0063	0.0063	21.1	21.3	179.3	0	0	DISENGD	OFF	34.1016	34.1016	34.1895	34.1895	-0.1953	1.6	1.62	0.63	4.92	4.98	3.83	0	机场68	机场73	0	250080
4	10	 8:45:22	-88	-16	-8	30	24.5	DOWN	FALSE	FALSE	FALSE	FALSE	FALSE	1.0039	1.0352	1.0117	1	0.9688	0.9648	0.9766	1.0039	1.0234	1.0273	-0.3516	-0.3516	-0.3516	-0.3516	-0.3516	-0.001	-0.001	-0.001	-0.001	-0.001	0.0879	0.0879	0.0063	0.0063	0.0063	0.0063	0.0063	21.2	21.3	179.2	0	0	DISENGD	OFF	34.1016	34.1016	34.1895	34.1895	-0.2676	3.05	3.17	-0.42	4.77	4.7	4.79	-0.1875	机场68	机场73	-0.1875	250080
4	10	 8:45:23	-90	1	-8	30	24	DOWN	FALSE	FALSE	FALSE	FALSE	FALSE	1.0195	0.9844	1.0273	0.9844	1.0234	0.9922	0.9883	0.9766	0.9805	0.9922	-0.3516	-0.3076	-0.3076	-0.3076	-0.3076	-0.001	-0.001	-0.001	-0.001	-0.001	0.0879	0.0879	0.0063	0.0063	0.0063	0.0063	0.0063	21.1	21.3	179.2	0	0	DISENGD	OFF	34.1016	34.1016	34.1895	34.1895	-0.2676	2.28	2.54	1.46	4.79	4.68	4.75	0.0625	机场68	机场73	0.0625	250080
4	10	 8:45:24	-89	10	-8	30	23.25	DOWN	FALSE	FALSE	FALSE	FALSE	FALSE	1.0195	0.9883	0.9844	0.9961	1.0039	1.0195	1.0078	1	0.9844	0.9844	-0.3076	-0.3076	-0.3076	-0.3076	-0.3076	-0.001	-0.001	-0.001	-0.001	-0.001	0.0879	0.0879	0.0063	0.0063	0.0063	0.0063	0.0063	21.1	21.3	179.1	0	0	DISENGD	OFF	34.1016	34.1016	34.1895	34.1895	-0.2559	2.46	2.23	0.74	4.86	4.6	4.88	0	机场68	机场73	0	250080
4	10	 8:45:25	-89	12	-8	30	22.5	DOWN	FALSE	FALSE	FALSE	FALSE	FALSE	0.9609	1	0.9648	0.9883	1.0195	0.9883	1.0195	0.9766	1.0313	1.0117	-0.3076	-0.3076	-0.3516	-0.3516	-0.3516	-0.001	-0.001	-0.001	-0.001	-0.001	-0.0879	0	0.0063	0.0063	0.0063	0.0063	0.0063	21.1	21.3	179	0	0	DISENGD	OFF	34.1016	34.1016	34.1895	34.1895	-0.2559	2.07	1.99	2.1	4.59	4.51	4.72	-0.0625	机场68	机场73	-0.0625	250080
4	10	 8:45:26	-89	10	-8	30	21.75	DOWN	FALSE	FALSE	FALSE	FALSE	FALSE	0.957	1.0039	1.0195	0.9961	1.0078	1.0273	1.0156	1.0078	0.9883	0.9727	-0.3955	-0.3955	-0.3516	-0.3516	-0.3516	-0.001	-0.001	-0.001	-0.001	-0.001	0.1758	-0.0879	0.0063	0.0063	0.0073	0.0063	0.0063	21.1	21.2	179	0	0	DISENGD	OFF	34.1016	34.1016	34.2334	34.2334	-0.2617	1.94	1.76	0.81	4.95	4.76	4.86	0.0625	机场68	机场73	0.0625	250080
4	10	 8:45:27	-88	-2	-8	30	21	DOWN	FALSE	FALSE	FALSE	FALSE	FALSE	0.9883	0.9805	0.9922	0.9844	0.9766	0.9961	0.9648	1.0195	1.0313	1.0039	-0.3516	-0.3516	-0.3516	-0.3516	-0.3516	-0.001	-0.001	-0.001	-0.001	-0.001	0.0879	0.0879	0.0063	0.0063	0.0063	0.0063	0.0073	21.1	21.2	179	0	0	DISENGD	OFF	34.1016	34.1016	34.2334	34.2334	-0.2617	2.67	2.3	-0.09	4.36	4.65	3.21	-0.125	机场68	机场73	-0.125	250080
4	10	 8:45:28	-89	-4	-8	30	20.5	DOWN	FALSE	FALSE	FALSE	FALSE	FALSE	0.9727	0.9766	0.9727	1.0078	0.9766	1.0195	1	0.9961	1.0156	0.9961	-0.3516	-0.3516	-0.3516	-0.3516	-0.3516	-0.001	-0.001	-0.001	-0.001	-0.001	0.0879	0.0879	0.0063	0.0063	0.0063	0.0063	0.0063	21.1	21.2	179	0	0	DISENGD	OFF	34.1016	34.1016	34.2334	34.2334	-0.2539	3.38	3.32	-0.33	4.79	4.75	4.63	0.0625	机场68	机场73	0.0625	250080
4	10	 8:45:29	-89	-2	-8	30	20.25	DOWN	FALSE	FALSE	FALSE	FALSE	FALSE	1	0.9805	0.9688	1.0078	1.0078	1.0195	0.9492	1.0195	1	1.0117	-0.3516	-0.3516	-0.3516	-0.3516	-0.3076	-0.001	-0.001	-0.001	-0.001	-0.001	0.0879	0.0879	0.0063	0.0063	0.0063	0.0063	0.0063	21.2	21.2	178.9	0	0	DISENGD	OFF	34.1016	34.0576	34.1895	34.1895	-0.2539	2.04	2.25	2.67	4.75	4.87	4.81	0	机场68	机场73	0	250080
4	10	 8:45:30	-89	0	-8	30	19.75	DOWN	FALSE	FALSE	FALSE	FALSE	FALSE	1	1.0039	1.0039	1.0234	1	0.9922	1.0195	0.9961	1	1	-0.3516	-0.3516	-0.3516	-0.3516	-0.3516	-0.001	-0.001	-0.001	-0.001	-0.001	0.0879	0.0879	0.0063	0.0063	0.0063	0.0063	0.0063	21.1	21.3	179	0	0	DISENGD	OFF	34.0576	34.0576	34.1895	34.1895	-0.1816	2.06	1.71	0.23	4.87	4.86	4.93	0.0625	机场68	机场73	0.0625	250080
4	10	 8:45:31	-89	2	-8	30	19.5	DOWN	FALSE	FALSE	FALSE	FALSE	FALSE	1.0313	0.9805	0.9922	0.9805	1.0078	0.9961	1.043	1.0156	0.9961	0.9531	-0.3516	-0.3516	-0.3516	-0.3516	-0.3516	-0.001	-0.001	-0.001	-0.001	-0.001	0.0879	0.0879	0.0063	0.0063	0.0063	0.0063	0.0063	21.1	21.2	179	0	0	DISENGD	OFF	34.0576	34.0576	34.1895	34.1895	-0.1816	2.78	2.62	1.15	5.01	4.99	4.87	0.0625	机场68	机场73	0.0625	250080
4	10	 8:45:32	-89	3	-8	30	19	DOWN	FALSE	FALSE	FALSE	FALSE	FALSE	1.0156	0.9922	0.9766	1.0078	1.0156	0.9922	1	1.0078	0.9805	1.0039	-0.3516	-0.3516	-0.3516	-0.3516	-0.3516	-0.001	-0.001	-0.001	-0.001	-0.001	0.0879	0.0879	0.0063	0.0063	0.0063	0.0063	0.0063	21.1	21.2	178.9	0	0	DISENGD	OFF	34.0576	34.0576	34.1895	34.1895	-0.2539	3.08	2.94	2.48	5.03	4.85	5.06	0.0625	机场68	机场73	0.0625	250080
4	10	 8:45:33	-88	-5	-8	30	19	DOWN	FALSE	FALSE	FALSE	FALSE	FALSE	1.0039	0.9766	0.9922	1.0039	1.0234	1.0156	0.9805	1.0234	0.9766	0.9805	-0.3516	-0.3076	-0.3516	-0.3516	-0.3516	-0.001	-0.001	-0.001	-0.001	-0.001	0.0879	0.0879	0.0063	0.0063	0.0063	0.0063	0.0063	21.1	21.2	178.9	0	0	DISENGD	OFF	34.0576	34.0576	34.1895	34.1895	-0.2539	2.75	2.49	0.26	4.69	4.9	3.58	-0.0625	机场68	机场73	-0.0625	250080
4	10	 8:45:34	-89	-4	-8	30	18.75	DOWN	FALSE	FALSE	FALSE	FALSE	FALSE	0.9805	0.9922	1.0469	0.9844	1.0273	0.9922	1.0078	1	1.0039	0.9766	-0.3076	-0.3516	-0.3516	-0.3516	-0.3516	-0.001	-0.001	-0.001	-0.001	-0.001	0.0879	0.0879	0.0063	0.0063	0.0063	0.0063	0.0063	21.1	21.2	178.9	0	0	DISENGD	OFF	34.0576	34.0576	34.1895	34.1895	-0.25	1.87	1.87	1.7	5.02	4.95	4.88	-0.1875	机场68	机场73	-0.1875	250080
4	10	 8:45:35	-89	-1	-8	30	18.5	DOWN	FALSE	FALSE	FALSE	FALSE	FALSE	1.0195	1.0078	1.0039	1	1	0.9922	1.0313	0.9805	1	0.9805	-0.3516	-0.3516	-0.3516	-0.3516	-0.3516	-0.001	-0.001	-0.001	-0.0021	-0.001	0.1758	0.0879	0.0063	0.0063	0.0063	0.0063	0.0063	21.1	21.2	178.9	0	0	DISENGD	OFF	34.0576	34.0576	34.1895	34.1895	-0.25	2.56	2.66	2.12	4.74	4.68	4.7	-0.0625	机场68	机场73	-0.0625	250080
4	10	 8:45:36	-89	2	-8	30	18.25	DOWN	FALSE	FALSE	FALSE	FALSE	FALSE	1	0.9922	1.0078	1.0156	0.9883	0.9883	0.9727	0.9688	0.9961	0.9922	-0.3516	-0.3516	-0.3516	-0.3516	-0.3516	-0.001	-0.001	-0.001	-0.001	-0.001	0.1758	0.1758	0.0063	0.0063	0.0052	0.0063	0.0063	21.1	21.2	179	0	0	DISENGD	OFF	34.0576	34.0576	34.1895	34.1895	-0.2324	2.22	2.09	1.3	4.6	4.72	4.61	0	机场68	机场73	0	250080
4	10	 8:45:37	-89	4	-8	30	18	DOWN	FALSE	FALSE	FALSE	FALSE	FALSE	1.0078	0.9922	0.9922	0.9609	1.0273	0.9961	1	0.9922	1	1.0039	-0.3516	-0.3516	-0.3516	-0.3516	-0.3516	-0.001	-0.001	-0.001	-0.001	-0.001	0.1758	0.1758	0.0063	0.0063	0.0063	0.0063	0.0063	21.1	21.2	178.9	0	0	DISENGD	OFF	34.0576	34.0576	34.1895	34.1895	-0.2324	2.82	2.89	1.32	5.06	5.07	5.04	-0.1875	机场68	机场73	-0.1875	250080
4	10	 8:45:38	-89	4	-8	30	17.5	DOWN	FALSE	FALSE	FALSE	FALSE	FALSE	1.0117	0.9961	0.9922	1.0117	0.9922	0.9805	1.0078	1.0156	0.9688	0.9766	-0.3516	-0.3516	-0.3516	-0.3516	-0.3516	-0.001	-0.001	-0.001	-0.001	-0.001	0.1758	0.1758	0.0063	0.0063	0.0063	0.0063	0.0063	21.1	21.3	179	0	0	DISENGD	OFF	34.0576	34.0576	34.1895	34.1895	-0.2598	2.4	2.37	1.65	5.02	5.07	4.86	0.0625	机场68	机场73	0.0625	250080
4	10	 8:45:39	-89	3	-8	30	17.5	DOWN	FALSE	FALSE	FALSE	FALSE	FALSE	1.0039	0.9844	1.0234	0.9727	0.9922	1.0195	0.9883	0.9883	1	0.9766	-0.3516	-0.3516	-0.3516	-0.3516	-0.3516	-0.001	-0.001	-0.001	-0.001	-0.001	0.1758	0.1758	0.0063	0.0063	0.0063	0.0063	0.0063	21.1	21.3	179	0	0	DISENGD	OFF	34.0576	34.0576	34.1895	34.1895	-0.2598	2.6	2.39	1.74	5	4.98	5.06	0.0625	机场68	机场73	0.0625	250080
4	10	 8:45:40	-89	2	-8	30	17	DOWN	FALSE	FALSE	FALSE	FALSE	FALSE	1.0078	0.9922	0.9883	0.9883	1.0156	1	0.9922	0.9766	1.0117	1	-0.3516	-0.3516	-0.3516	-0.3516	-0.3516	-0.001	-0.001	-0.001	-0.001	-0.001	0.1758	0.1758	0.0063	0.0063	0.0063	0.0063	0.0063	21.1	21.3	179.1	0	0	DISENGD	OFF	34.1016	34.1016	34.1895	34.1895	-0.2305	2.28	2.15	1.71	4.64	4.68	4.88	0	机场68	机场73	0	250080
4	10	 8:45:41	-90	8	-8	30	16.75	DOWN	FALSE	FALSE	FALSE	FALSE	FALSE	0.9805	0.9844	1.0156	0.9961	1.0117	1	1.0156	0.9961	0.9883	1	-0.3516	-0.3516	-0.3955	-0.3955	-0.3955	-0.001	-0.001	-0.001	-0.001	-0.001	0.1758	0.1758	0.0063	0.0063	0.0063	0.0063	0.0063	21.1	21.3	179.1	0	0	DISENGD	OFF	34.1016	34.1016	34.1895	34.1895	-0.2305	2.21	2.06	1.5	5.05	5	5.02	0	机场68	机场73	0	250080
4	10	 8:45:42	-89	6	-8	30	16.25	DOWN	FALSE	FALSE	FALSE	FALSE	FALSE	1.0078	0.9922	0.9961	1.0039	1.0156	0.9883	0.9922	1.0078	0.9922	0.9609	-0.3955	-0.3955	-0.3955	-0.3955	-0.3955	-0.001	-0.001	-0.001	-0.001	-0.001	0.2637	0.2637	0.0063	0.0063	0.0063	0.0063	0.0063	21.1	21.3	179	0	0	DISENGD	OFF	34.1016	34.1016	34.1895	34.1895	-0.2461	2.03	2.11	2.82	4.76	4.78	4.76	-0.0625	机场68	机场73	-0.0625	250080
4	10	 8:45:43	-89	1	-8	30	16	DOWN	FALSE	FALSE	FALSE	FALSE	FALSE	1.0234	0.9844	0.9727	0.9922	1.0352	1.0195	0.9688	0.9766	1.0156	0.9922	-0.3955	-0.3955	-0.3955	-0.3955	-0.3955	-0.001	-0.001	-0.001	-0.001	-0.001	0.1758	0.2637	0.0063	0.0063	0.0063	0.0063	0.0063	21.1	21.3	178.9	0	0	DISENGD	OFF	34.1016	34.1016	34.1895	34.1895	-0.2461	2.77	2.92	2.26	5.07	4.88	4.61	0.0625	机场68	机场73	0.0625	250080
4	10	 8:45:44	-89	-3	-8	30	15.5	DOWN	FALSE	FALSE	FALSE	FALSE	FALSE	0.9609	0.9766	1	1.0078	0.9844	1.0039	0.9727	1.0117	1.0195	0.9883	-0.3955	-0.3955	-0.3955	-0.3516	-0.3955	-0.001	-0.001	-0.001	-0.001	-0.001	0.2637	0.2637	0.0063	0.0063	0.0063	0.0063	0.0063	21.1	21.3	178.9	0	0	DISENGD	OFF	34.1016	34.1016	34.1895	34.1895	-0.25	2.35	2.33	2.92	5.06	5.07	4.87	0	机场68	机场73	0	250080
4	10	 8:45:45	-89	-5	-8	30	15	DOWN	FALSE	FALSE	FALSE	FALSE	FALSE	0.9609	0.9844	1.0156	1.0195	1.0117	1.0156	1.0156	1	1.0117	0.9727	-0.3955	-0.3955	-0.3955	-0.3955	-0.3955	-0.001	-0.001	-0.001	-0.001	-0.001	0.1758	0.2637	0.0063	0.0063	0.0063	0.0063	0.0063	21.1	21.3	178.9	0	0	DISENGD	OFF	34.1016	34.1016	34.1895	34.1895	-0.25	2.21	2.21	2.79	4.99	4.96	4.93	0	机场68	机场73	0	250080
4	10	 8:45:46	-89	-5	-8	30	14.75	DOWN	FALSE	FALSE	FALSE	FALSE	FALSE	0.9844	1.0039	1	1.0156	1.0078	1.0078	1.0195	0.9961	0.9922	0.9688	-0.3516	-0.3516	-0.3516	-0.3516	-0.3516	-0.001	-0.001	-0.001	-0.001	-0.001	0.1758	0.1758	0.0063	0.0063	0.0063	0.0063	0.0063	21.1	21.3	179	0	0	DISENGD	OFF	34.1016	34.1016	34.1895	34.1895	-0.2461	2.63	2.63	2.81	4.81	4.97	4.22	0	机场68	机场73	0	250080
4	10	 8:45:47	-89	-4	-8	30	14.75	DOWN	FALSE	FALSE	FALSE	FALSE	FALSE	0.9727	1	0.9922	1.0391	1.0273	0.9805	0.9805	0.9688	1.0313	0.9766	-0.3516	-0.3516	-0.3516	-0.3516	-0.3516	-0.001	-0.001	-0.001	-0.001	-0.001	0.1758	0.1758	0.0063	0.0063	0.0063	0.0063	0.0063	21.1	21.2	179	0	0	DISENGD	OFF	34.1016	34.1016	34.1895	34.1895	-0.2461	2.33	2.35	2.48	4.8	4.99	4.84	-0.1875	机场68	机场73	-0.1875	250080
4	10	 8:45:48	-89	-2	-8	30	15	DOWN	FALSE	FALSE	FALSE	FALSE	FALSE	1.0156	0.9805	1.0156	0.9883	1.0117	1.0156	0.9922	1	1.0273	0.9961	-0.3516	-0.3516	-0.3516	-0.3516	-0.3516	-0.001	-0.001	-0.001	-0.001	-0.001	0.1758	0.1758	0.0063	0.0063	0.0063	0.0063	0.0063	21.1	21.2	179.1	0	0	DISENGD	OFF	34.1016	34.1016	34.1895	34.1895	0.4297	2.5	2.36	2.2	4.99	5.11	4.19	-0.125	机场68	机场73	-0.125	250080
4	10	 8:45:49	-89	-1	-8	30	15.25	DOWN	FALSE	FALSE	FALSE	FALSE	FALSE	0.9805	1.0078	0.9844	1.0195	0.9766	0.9883	0.9922	1.0078	0.9727	0.9883	-0.3516	-0.3076	-0.3516	-0.3516	-0.3516	-0.001	-0.001	-0.001	-0.001	-0.001	0.1758	0.1758	0.0063	0.0063	0.0063	0.0063	0.0063	21.1	21.3	179	0	0	DISENGD	OFF	34.1016	34.1016	34.1895	34.1895	0.4297	3.06	2.98	2.63	5.05	5.07	4.94	0.0625	机场68	机场73	0.0625	250080
4	10	 8:45:50	-90	8	-8	30	15.5	DOWN	FALSE	FALSE	FALSE	FALSE	FALSE	0.9492	1.0078	1.0234	1.0234	0.9805	1.0273	0.9922	1.0234	0.9961	1	-0.3516	-0.3516	-0.3516	-0.3516	-0.3516	-0.001	-0.001	-0.001	-0.001	-0.001	0.0879	0.0879	0.0063	0.0063	0.0063	0.0063	0.0063	21.1	21.3	179	0	0	DISENGD	OFF	34.1016	34.1016	34.1895	34.1895	-0.252	3.13	3.11	3.12	4.98	5.04	4.94	0	机场68	机场73	0	250080
4	10	 8:45:51	-90	14	-8	30	15.75	DOWN	FALSE	FALSE	FALSE	FALSE	FALSE	0.9883	1.0039	0.9883	1.0117	1.0078	0.9844	1.0234	1.0117	1	0.9805	-0.3076	-0.3076	-0.3076	-0.3516	-0.3516	-0.001	-0.001	-0.001	-0.001	-0.001	0.0879	0.0879	0.0063	0.0063	0.0063	0.0063	0.0063	21.1	21.2	178.9	0	0	DISENGD	OFF	34.1016	34.1016	34.1895	34.1895	-0.252	3.36	3.31	3.44	5.04	5.07	4.97	-0.0625	机场68	机场73	-0.0625	250080
4	10	 8:45:52	-90	16	-8	30	16	DOWN	FALSE	FALSE	FALSE	FALSE	FALSE	0.9648	1.0078	0.9961	0.9883	1.0313	1.0078	1.0234	0.9648	0.9961	1.0078	-0.3516	-0.3516	-0.3516	-0.3076	-0.3076	-0.001	-0.001	-0.001	-0.001	-0.001	0.0879	0.0879	0.0063	0.0063	0.0063	0.0063	0.0063	21.1	21.3	178.9	0	0	DISENGD	OFF	34.1016	34.1016	34.1895	34.1895	-0.252	3.04	3.03	3.08	5.04	5.04	4.87	0.0625	机场68	机场73	0.0625	250080
4	10	 8:45:53	-90	14	-8	30	16	DOWN	FALSE	FALSE	FALSE	FALSE	FALSE	0.9453	1	1.0039	1.0117	0.9922	1	0.9805	0.9727	1.0039	0.9844	-0.3076	-0.3076	-0.3076	-0.3076	-0.3076	-0.001	-0.001	-0.001	-0.001	-0.001	0.0879	0.0879	0.0063	0.0063	0.0063	0.0063	0.0063	21.1	21.3	178.9	0	0	DISENGD	OFF	34.1016	34.1016	34.1895	34.1895	-0.252	2.91	2.92	2.46	5.1	5.01	5.06	0	机场68	机场73	0	250080
4	10	 8:45:54	-90	9	-8	30	16.25	DOWN	FALSE	FALSE	FALSE	FALSE	FALSE	0.9883	1	0.9922	1.0039	0.9883	0.9961	1	0.9844	1.0156	1.0078	-0.3076	-0.3076	-0.2637	-0.2637	-0.2637	-0.001	-0.001	-0.001	-0.001	-0.001	0.0879	0.0879	0.0063	0.0063	0.0063	0.0063	0.0063	21.1	21.3	178.9	0	0	DISENGD	OFF	34.1016	34.1016	34.1895	34.1895	-0.252	3.21	3.17	3.15	4.73	4.8	4.85	0.0625	机场68	机场73	0.0625	250080
4	10	 8:45:55	-90	5	-8	30	16.5	DOWN	FALSE	FALSE	FALSE	FALSE	FALSE	0.9922	1.0195	0.9844	0.9844	1.0273	1.0156	1	0.9688	1.0313	1.0156	-0.2637	-0.2637	-0.2637	-0.3076	-0.3076	-0.001	-0.001	-0.001	-0.001	-0.001	-0.0879	0.0879	0.0063	0.0063	0.0063	0.0063	0.0063	21.1	21.3	178.9	0	0	DISENGD	OFF	34.1016	34.1016	34.1895	34.1895	-0.252	4.2	4.32	4.72	4.96	5.02	5	-0.0625	机场68	机场73	-0.0625	250080
4	10	 8:45:56	-90	1	-8	30	16.5	DOWN	FALSE	FALSE	FALSE	FALSE	FALSE	0.9805	1.0273	0.9648	1.0352	1.0117	1.0039	1.0156	0.9844	0.9844	1	-0.3076	-0.3076	-0.2637	-0.2637	-0.2637	-0.001	-0.001	-0.001	-0.001	-0.001	0.0879	-0.0879	0.0063	0.0063	0.0063	0.0063	0.0073	21.1	21.2	178.9	0	0	DISENGD	OFF	34.1016	34.1016	34.1895	34.1895	-0.2598	3.66	3.67	3.87	4.93	4.89	4.87	0	机场68	机场73	0	250080
