DATE: MONTH	DATE: DAY	GMT	ALTITUDE (1013)	Inertial Vertical Speed	RADIO ALT	COMPUTED AIR SPD	GROUNDSPEED	 GEAR SELECT DOWN	WOW INDICATE INAIR	WOW INDICATE INAIR	WOW INDICATE INAIR	WOW INDICATE INAIR	WOW INDICATE INAIR	COG NORM ACCEL	COG NORM ACCEL	COG NORM ACCEL	COG NORM ACCEL	COG NORM ACCEL	COG NORM ACCEL	COG NORM ACCEL	COG NORM ACCEL	COG NORM ACCEL	COG NORM ACCEL	PITCH ATT	PITCH ATT	PITCH ATT	PITCH ATT	PITCH ATT	CAP CLM 1 POSN	CAP CLM 1 POSN	CAP CLM 1 POSN	CAP CLM 1 POSN	CAP CLM 1 POSN	ROLL ATT	ROLL ATT	CAP WHL 1 POSN	CAP WHL 1 POSN	CAP WHL 1 POSN	CAP WHL 1 POSN	CAP WHL 1 POSN	N1 SELTED-L	N1 SELTED-R	MAGNETIC HEADING	WIND DIR(ADIRU)	WIND SPD(ADIRU)	A/T ENGAGED	ANY A/P ENGAGED	TRA-L	TRA-L	TRA-R	TRA-R	RUDD POSN	GLIDESLOPE DEV Dots (C)	GLIDESLOPE DEV Dots (L)	GLIDESLOPE DEV Dots (R)	LOCALIZER DEV Dots (C)	LOCALIZER DEV Dots (L)	LOCALIZER DEV Dots (R)	PITCH ATT RATE	DEPARTURE AIRPORT	DESTINATION AIRPORT	PITCH ATT RATE	FMF GROSS WEIGHT
DATECLKMON 	DATECLKDAY 	GMT	ALT 	ZIVV 	GPRA 	CAS 	GNDSPEED 	LGDN	WOWINAIR 	WOWINAIR 	WOWINAIR 	WOWINAIR 	WOWINAIR 	CGBRMACL 	CGBRMACL 	CGBRMACL 	CGBRMACL 	CGBRMACL 	CGBRMACL 	CGBRMACL 	CGBRMACL 	CGBRMACL 	CGBRMACL 	PITCH 	PITCH 	PITCH 	PITCH 	PITCH 	CCOL1POS 	CCOL1POS 	CCOL1POS 	CCOL1POS 	CCOL1POS 	ROLL 	ROLL 	CWHL1POS 	CWHL1POS 	CWHL1POS 	CWHL1POS 	CWHL1POS 	N1.L 	N1.R 	MAGHEADNG 	WINDIRCTRU 	WINDSPEED 	TMATENGD 	APENG 	TRA.L 	TRA.L 	TRA.R 	TRA.R 	RUDPOSN 	GSDEVC	GSDEVL	GSDEVR	LOCDEVC	LOCDEVL	LOCDEVR	PTCHATTRAT 	DEPRTARPT 	DESTARPT 	PTCHATTRAT 	FMFGROSSWT 
months	days	HHMMSS	FT	FT	"FT"" "	KNTS	KNTS	DOWN	TRUE	TRUE	TRUE	TRUE	TRUE	GEES	GEES	GEES	GEES	GEES	GEES	GEES	GEES	GEES	GEES	DEGS	DEGS	DEGS	DEGS	DEGS	IN LVDT	IN LVDT	IN LVDT	IN LVDT	IN LVDT	DEGS	DEGS	IN LVDT	IN LVDT	IN LVDT	IN LVDT	IN LVDT	 	 	DEGS	DEG	KNTS	ENGAGED	ON	DEG	DEG	DEG	DEG	IN	DOT	DOT	DOT	DOT	DOT	DOT	DEG/SEC	 	 	DEG/SEC	KGS
4	10	11:59:59	-67	0	-8	30	7.25	DOWN	FALSE	FALSE	FALSE	FALSE	FALSE	0.9961	1.0039	1.0156	1.0039	0.9805	0.9922	0.9883	1.0195	1.0078	0.9961	-0.3076	-0.3076	-0.3076	-0.3076	-0.3516	-0.001	-0.001	-0.001	-0.001	-0.001	0.3516	0.3516	0.0063	0.0063	0.0063	0.0063	0.0063	21.1	21.3	92.4	87.2	42.75	DISENGD	OFF	34.0576	34.0137	34.1016	34.1016	-0.1719	-1.35	0.06	1.29	-2.25	-3.88	-2.43	0	机场73	机场68	0	252960
4	10	12:00:00	-67	0	-8	30	7.5	DOWN	FALSE	FALSE	FALSE	FALSE	FALSE	1.0156	1.0078	1.0039	0.9922	1.0039	0.9844	0.9922	1.0039	0.9961	0.9961	-0.3076	-0.3516	-0.3516	-0.3516	-0.3516	-0.001	-0.001	-0.001	-0.001	-0.001	0.3516	0.3516	0.0063	0.0063	0.0063	0.0063	0.0063	21.1	21.3	92.4	87.2	42.5	DISENGD	OFF	34.0137	34.0137	34.1016	34.0576	-0.1719	-0.8	-0.33	-1.9	-4.6	-3.81	-4.59	-0.0625	机场73	机场68	-0.0625	252960
4	10	12:00:01	-67	0	-8	30	7.5	DOWN	FALSE	FALSE	FALSE	FALSE	FALSE	1.0078	1.0078	1.0234	0.9805	0.9922	1.0078	0.9883	1	0.9844	0.9805	-0.3516	-0.3516	-0.3516	-0.3516	-0.3516	-0.001	-0.001	-0.001	-0.001	-0.001	0.3516	0.3516	0.0063	0.0063	0.0063	0.0063	0.0063	21.1	21.2	92.3	87.2	42.375	DISENGD	OFF	34.0137	34.0137	34.1016	34.1016	-0.1602	-1.37	-1.17	0.74	-2.96	-2.79	-2.89	0	机场73	机场68	0	252960
4	10	12:00:02	-67	0	-8	30	7.75	DOWN	FALSE	FALSE	FALSE	FALSE	FALSE	1.0039	0.9922	1.0273	0.9805	0.9844	1.0039	1.0117	0.9883	0.9844	0.9805	-0.3516	-0.3516	-0.3516	-0.3516	-0.3516	-0.001	-0.001	-0.001	-0.001	-0.001	0.3516	0.3516	0.0063	0.0063	0.0063	0.0063	0.0063	21.2	21.2	92.3	87.2	42.125	DISENGD	OFF	34.0576	34.0576	34.1016	34.1016	-0.1602	1.6	1.31	-1.47	-3.82	-4.6	-3.83	0	机场73	机场68	0	252960
4	10	12:00:03	-67	0	-8	30	8	DOWN	FALSE	FALSE	FALSE	FALSE	FALSE	1.0117	1.0156	0.9844	0.9922	0.9961	1.0039	1.0117	0.9961	0.9844	0.9883	-0.3516	-0.3516	-0.3516	-0.3516	-0.3516	-0.001	-0.001	-0.001	-0.001	-0.001	0.3516	0.3516	0.0063	0.0063	0.0063	0.0063	0.0063	21.2	21.3	92.2	87.2	42	DISENGD	OFF	34.0576	34.0576	34.1016	34.1016	-0.1836	1.22	1.05	2.7	-3.14	-4.59	-3.23	0	机场73	机场68	0	252960
4	10	12:00:04	-67	0	-8	30	8.25	DOWN	FALSE	FALSE	FALSE	FALSE	FALSE	1.0039	0.9961	1.0117	1	1	1.0078	1	0.9922	1	0.9844	-0.3516	-0.3516	-0.3516	-0.3516	-0.3516	-0.001	-0.001	-0.001	-0.001	-0.001	0.3516	0.3516	0.0063	0.0063	0.0063	0.0063	0.0063	21.2	21.3	92.2	87.2	41.75	DISENGD	OFF	34.0576	34.0576	34.1016	34.1016	-0.1836	1.03	-0.15	1.33	-4.13	-3.23	-4.22	0.0625	机场73	机场68	0.0625	252960
4	10	12:00:05	-67	0	-8	30	8.25	DOWN	FALSE	FALSE	FALSE	FALSE	FALSE	0.9961	1.0195	1.0117	1.0234	0.9805	0.9844	0.9883	1.0078	1.0039	1.0078	-0.3516	-0.3516	-0.3516	-0.3516	-0.3516	-0.001	-0.001	-0.001	-0.001	-0.001	0.3516	0.3516	0.0063	0.0063	0.0063	0.0063	0.0063	21.2	21.2	92.1	87.2	41.625	DISENGD	OFF	34.0576	34.0576	34.1016	34.1016	-0.25	2.05	2.79	-3.2	-4.69	5.16	-4.34	0	机场73	机场68	0	252960
4	10	12:00:06	-67	0	-8	30	8.5	DOWN	FALSE	FALSE	FALSE	FALSE	FALSE	0.9727	0.9961	1	0.9961	1	1.0078	0.9961	0.9805	1	0.9648	-0.3516	-0.3516	-0.3516	-0.3516	-0.3516	-0.001	-0.001	-0.001	-0.001	-0.001	0.3516	0.3516	0.0063	0.0063	0.0063	0.0063	0.0063	21.2	21.2	92.1	86.8	41.375	DISENGD	OFF	34.0576	34.0576	34.1016	34.1016	-0.25	-2.07	-1.84	-1.7	-4.98	-5.14	-5.04	0	机场73	机场68	0	252960
4	10	12:00:07	-67	0	-8	30	8.75	DOWN	FALSE	FALSE	FALSE	FALSE	FALSE	1.0234	1.0156	1.0078	0.9844	0.9844	1	1.0078	1	0.9766	1.0078	-0.3516	-0.3516	-0.3516	-0.3516	-0.3516	-0.001	-0.001	-0.001	-0.001	-0.001	0.3516	0.3516	0.0063	0.0063	0.0063	0.0063	0.0063	21.2	21.3	92.1	86.8	41.125	DISENGD	OFF	34.0576	34.0576	34.1016	34.1016	-0.2402	-3.12	-2.55	-4	-3.44	-3.21	-3.34	-0.0625	机场73	机场68	-0.0625	252960
4	10	12:00:08	-67	0	-8	30	9	DOWN	FALSE	FALSE	FALSE	FALSE	FALSE	0.9961	1.0313	1.0352	1.0234	0.9688	0.9727	0.9883	0.9922	1.0156	1.0078	-0.3516	-0.3516	-0.3516	-0.3516	-0.3516	-0.001	-0.001	-0.001	-0.001	-0.001	0.3516	0.3516	0.0063	0.0063	0.0063	0.0063	0.0063	21.2	21.3	92.2	86.8	41	DISENGD	OFF	34.0576	34.0576	34.1016	34.1016	-0.2402	-0.05	-0.04	0.28	-4.2	-3.17	-4.21	-0.0625	机场73	机场68	-0.0625	252960
4	10	12:00:09	-68	8	-8	30	9.25	DOWN	FALSE	FALSE	FALSE	FALSE	FALSE	0.9922	1.0156	1.0117	1.0039	0.9727	0.9766	0.9844	0.9883	0.9961	1.0039	-0.3516	-0.3516	-0.3955	-0.3516	-0.3516	-0.001	-0.001	-0.001	-0.001	-0.001	0.3516	0.3516	0.0063	0.0063	0.0063	0.0063	0.0063	21.2	21.3	92.2	87.2	40.75	DISENGD	OFF	34.0576	34.0576	34.1016	34.1016	-0.0742	3.03	4.04	1.59	-1.98	-1.61	-1.88	-0.0625	机场73	机场68	-0.0625	252960
4	10	12:00:10	-68	14	-8	30	9.25	DOWN	FALSE	FALSE	FALSE	FALSE	FALSE	0.9961	0.9961	1	1	0.9961	1	1.0039	0.9961	0.9961	1.0039	-0.3516	-0.3516	-0.3516	-0.3516	-0.3516	-0.001	-0.001	-0.001	-0.001	-0.001	0.3516	0.3516	0.0063	0.0063	0.0063	0.0063	0.0063	21.1	21.3	92.3	87.2	40.625	DISENGD	OFF	34.0576	34.0576	34.1016	34.1016	-0.0742	-1.04	-1.94	0.78	-4.06	-4.15	-4.11	-0.0625	机场73	机场68	-0.0625	252960
4	10	12:00:11	-68	15	-8	30	9.5	DOWN	FALSE	FALSE	FALSE	FALSE	FALSE	1.0078	0.9961	1.0234	0.9883	1.0078	0.9961	1.0039	0.9961	1.0039	0.9805	-0.3516	-0.3516	-0.3516	-0.3516	-0.3516	-0.001	-0.001	-0.001	-0.001	-0.001	0.2637	0.3516	0.0063	0.0063	0.0063	0.0063	0.0063	21.2	21.3	92.4	87.2	40.375	DISENGD	OFF	34.0576	34.0576	34.1016	34.1016	-0.1523	-1.85	-1.32	0.52	-4.03	-3.94	-4.19	-0.0625	机场73	机场68	-0.0625	252960
4	10	12:00:12	-68	13	-8	30	9.75	DOWN	FALSE	FALSE	FALSE	FALSE	FALSE	1.0078	0.9961	0.9766	1.0117	0.9922	1.0156	0.9805	1	0.9961	0.9844	-0.3516	-0.3516	-0.3516	-0.3516	-0.3516	-0.001	-0.001	-0.001	-0.001	-0.001	0.2637	0.3516	0.0063	0.0063	0.0063	0.0063	0.0063	21.2	21.2	92.4	87.2	40.25	DISENGD	OFF	34.0576	34.0576	34.1016	34.1016	-0.1523	0.62	0.21	1.88	-3.91	-4.12	-3.9	-0.0625	机场73	机场68	-0.0625	252960
4	10	12:00:13	-68	9	-8	30	10	DOWN	FALSE	FALSE	FALSE	FALSE	FALSE	0.9961	1	0.9844	1	0.9883	0.9961	1	0.9961	1.0195	0.9922	-0.3516	-0.3516	-0.3516	-0.3516	-0.3076	-0.001	-0.001	-0.001	-0.001	-0.001	0.2637	0.2637	0.0063	0.0063	0.0063	0.0063	0.0063	21.2	21.3	92.4	87.2	40	DISENGD	OFF	34.0576	34.0576	34.1016	34.1016	-0.1562	0.38	1.68	-0.88	-4.45	5.16	-4.5	-0.0625	机场73	机场68	-0.0625	252960
4	10	12:00:14	-67	-3	-8	30	10	DOWN	FALSE	FALSE	FALSE	FALSE	FALSE	0.9883	1.0039	0.9844	1.0156	1.0039	1.0039	0.9766	0.9922	1.0039	0.9961	-0.3076	-0.3076	-0.3076	-0.3076	-0.3076	-0.001	-0.001	-0.001	-0.001	-0.001	0.2637	0.2637	0.0063	0.0063	0.0063	0.0063	0.0063	21.2	21.2	92.4	87.2	39.875	DISENGD	OFF	34.0576	34.0576	34.1016	34.1016	-0.1562	2.19	1.92	-1.57	-1.81	-0.31	-1.65	0	机场73	机场68	0	252960
4	10	12:00:15	-67	-13	-8	30	10.25	DOWN	FALSE	FALSE	FALSE	FALSE	FALSE	0.9414	1	0.9922	1.0273	1.0117	1.0039	1.0039	0.9805	1.0273	0.9766	-0.3076	-0.2637	-0.3076	-0.2637	-0.2637	-0.001	-0.001	-0.001	-0.001	-0.001	0.2637	0.2637	0.0063	0.0063	0.0063	0.0063	0.0063	21.1	21.2	92.5	87.2	39.625	DISENGD	OFF	34.0576	34.0576	34.1016	34.1016	-0.166	0.34	-0.39	-2.17	-4.15	-3.3	-4.81	-0.0625	机场73	机场68	-0.0625	252960
4	10	12:00:16	-68	-9	-8	30	10.5	DOWN	FALSE	FALSE	FALSE	FALSE	FALSE	1.0078	1.0195	1.0039	0.9922	0.9961	0.9922	1.0039	1.0195	0.9883	0.9922	-0.2637	-0.2637	-0.2637	-0.2637	-0.2637	-0.001	-0.001	-0.001	-0.001	-0.001	0.3516	0.3516	0.0063	0.0063	0.0063	0.0063	0.0063	21.1	21.2	92.5	87.2	39.375	DISENGD	OFF	34.0576	34.0576	34.1016	34.1016	-0.166	-1.44	-1.69	-0.71	-4.18	-3.79	-4.2	0	机场73	机场68	0	252960
4	10	12:00:17	-67	-9	-8	30	10.75	DOWN	FALSE	FALSE	FALSE	FALSE	FALSE	1.0117	1.0195	0.9883	0.9727	1.0117	1.0117	0.9922	0.9844	1	0.9922	-0.2637	-0.2637	-0.2637	-0.2637	-0.2637	-0.001	-0.001	-0.001	-0.001	-0.001	0.3516	0.3516	0.0063	0.0063	0.0063	0.0063	0.0063	21.1	21.2	92.5	87.5	39.25	DISENGD	OFF	34.0576	34.0576	34.1016	34.1016	-0.1816	-1.58	-0.94	-1.57	-2.11	-2.37	-1.94	-0.0625	机场73	机场68	-0.0625	252960
4	10	12:00:18	-68	-1	-8	30	11	DOWN	FALSE	FALSE	FALSE	FALSE	FALSE	0.9922	0.9844	0.957	1.0078	1.0156	0.9961	0.9727	0.9766	1.0313	1.0195	-0.2637	-0.2637	-0.2637	-0.2637	-0.2197	-0.001	-0.001	-0.001	-0.001	-0.001	0.4395	0.4395	0.0063	0.0063	0.0063	0.0063	0.0063	21.1	21.2	92.5	87.5	39	DISENGD	OFF	34.0576	34.0576	34.1016	34.1016	-0.1816	0.04	-1.05	1.2	-4.14	-3.91	-3.92	-0.125	机场73	机场68	-0.125	252960
4	10	12:00:19	-67	-2	-8	30	11	DOWN	FALSE	FALSE	FALSE	FALSE	FALSE	0.9922	1.0156	1.0352	0.9922	0.9766	0.9922	1.0078	1.0234	0.9805	1.0195	-0.2197	-0.2197	-0.2197	-0.2197	-0.2197	-0.001	-0.001	-0.001	-0.001	-0.001	0.4395	0.4395	0.0063	0.0063	0.0063	0.0063	0.0063	21	21.2	92.5	87.5	38.875	DISENGD	OFF	34.0576	34.0576	34.1016	34.1016	-0.0605	-1.64	-1.61	0.65	-2.25	-3.62	-2.72	0	机场73	机场68	0	252960
4	10	12:00:20	-67	-4	-8	30	11.25	DOWN	FALSE	FALSE	FALSE	FALSE	FALSE	0.9961	1.0117	0.9648	0.9922	0.9922	1.0078	0.9922	0.9844	1	0.9805	-0.1758	-0.1758	-0.1758	-0.1758	-0.1758	-0.001	-0.001	-0.001	-0.001	-0.001	0.4395	0.4395	0.0063	0.0063	0.0063	0.0063	0.0063	21.1	21.3	92.5	87.5	38.75	DISENGD	OFF	34.0576	34.0576	34.1016	34.1016	-0.0605	-2.29	-2.94	-2.28	-4.11	-4.21	-4.24	-0.125	机场73	机场68	-0.125	252960
4	10	12:00:21	-67	-6	-8	30	11.5	DOWN	FALSE	FALSE	FALSE	FALSE	FALSE	0.9922	0.9961	0.9922	0.9727	1.0273	1.0117	0.9609	0.9922	1.0234	1.0273	-0.2197	-0.2197	-0.2637	-0.2637	-0.2637	-0.001	-0.001	-0.001	-0.001	-0.001	0.4395	0.4395	0.0063	0.0063	0.0063	0.0063	0.0063	21.1	21.3	92.5	87.5	38.5	DISENGD	OFF	34.0576	34.0576	34.1016	34.1016	-0.0449	-3.03	-2.75	-0.91	-3.68	-3.49	-3.75	-0.0625	机场73	机场68	-0.0625	252960
4	10	12:00:22	-67	-6	-8	30	11.5	DOWN	FALSE	FALSE	FALSE	FALSE	FALSE	0.9844	1.0156	1.0195	0.9961	0.9727	0.9961	1.0195	0.9883	1	1.0273	-0.3076	-0.3076	-0.3076	-0.3516	-0.3516	-0.001	-0.001	-0.001	-0.001	-0.001	0.4395	0.4395	0.0063	0.0063	0.0063	0.0063	0.0063	21.1	21.2	92.5	87.5	38.375	DISENGD	OFF	34.0576	34.0576	34.1016	34.1016	-0.0449	1.81	1.86	0.18	-4.9	5.16	-4.48	-0.1875	机场73	机场68	-0.1875	252960
4	10	12:00:23	-67	-5	-8	30	11.75	DOWN	FALSE	FALSE	FALSE	FALSE	FALSE	1.0352	0.9922	1.0039	0.9844	1.0156	0.9883	1.0195	0.9609	1.0078	0.9688	-0.3955	-0.3955	-0.4395	-0.4395	-0.4395	-0.001	-0.001	-0.001	-0.001	-0.001	0.4395	0.4395	0.0063	0.0063	0.0063	0.0063	0.0063	21.1	21.2	92.5	87.5	38.25	DISENGD	OFF	34.0576	34.0576	34.1016	34.1016	-0.0352	-2.21	-2.14	-0.98	-2.25	-3.51	-3.1	-0.1875	机场73	机场68	-0.1875	252960
4	10	12:00:24	-67	-3	-8	30	11.75	DOWN	FALSE	FALSE	FALSE	FALSE	FALSE	1.0117	1	0.9922	1.0117	1.0156	0.9727	0.9805	0.9922	1.0117	0.9961	-0.4834	-0.4834	-0.5273	-0.5273	-0.5713	-0.001	-0.001	-0.001	-0.001	-0.001	0.4395	0.4395	0.0063	0.0063	0.0063	0.0063	0.0063	21.1	21.2	92.5	87.5	38.25	DISENGD	OFF	34.0576	34.0576	34.1016	34.1016	-0.0352	-1.37	-1.41	-2.36	-3.67	-1.36	-3.68	0	机场73	机场68	0	252960
4	10	12:00:25	-67	-1	-8	30	11.75	DOWN	FALSE	FALSE	FALSE	FALSE	FALSE	0.9727	0.957	0.9453	1.0195	1	1	0.9766	0.9922	1.0117	1.0039	-0.5713	-0.6152	-0.6592	-0.6592	-0.6592	-0.001	-0.001	-0.001	-0.001	-0.001	0.3516	0.4395	0.0063	0.0063	0.0063	0.0063	0.0063	21.1	21.3	92.3	87.5	38.25	DISENGD	OFF	34.0576	34.0576	34.1016	34.1016	0.0527	-1.78	-2.18	-0.89	-2.62	-2.38	-2.71	-0.125	机场73	机场68	-0.125	252960
4	10	12:00:26	-68	8	-8	30	11.5	DOWN	FALSE	FALSE	FALSE	FALSE	FALSE	0.9805	1	0.9922	0.9961	0.9727	0.9883	0.9883	1.0352	0.9648	1.0352	-0.7031	-0.6592	-0.6592	-0.6152	-0.6592	-0.001	-0.001	-0.001	-0.001	-0.001	0.1758	0.1758	0.0063	0.0063	0.0063	0.0063	0.0063	21.2	21.2	92	87.5	38.375	DISENGD	OFF	34.0576	34.0576	34.1016	34.1016	0.0527	-2.48	-3.12	0.05	-3.52	-3.71	-3.46	0.0625	机场73	机场68	0.0625	252960
4	10	12:00:27	-68	14	-8	30	11.75	DOWN	FALSE	FALSE	FALSE	FALSE	FALSE	0.9844	1.0156	0.9922	1.0352	0.9648	1.0117	0.9961	1.0352	1	1	-0.6592	-0.7031	-0.7031	-0.7031	-0.7031	-0.001	-0.001	-0.001	-0.001	-0.001	0.0879	0.1758	0.0063	0.0063	0.0063	0.0063	0.0063	21.2	21.3	91.7	87.2	38.25	DISENGD	OFF	34.0576	34.0576	34.1016	34.1016	-0.1641	-2.03	-2.46	-2.12	-3.78	-3.31	-3.45	-0.125	机场73	机场68	-0.125	252960
4	10	12:00:28	-68	16	-8	30	12	DOWN	FALSE	FALSE	FALSE	FALSE	FALSE	0.9766	1.0039	0.9883	1.0039	1.0117	0.9922	0.9961	0.9609	1.0078	1.0039	-0.7031	-0.6592	-0.6592	-0.6592	-0.6592	-0.001	-0.001	-0.001	-0.001	-0.001	0.0879	0.0879	0.0063	0.0063	0.0063	0.0063	0.0063	21.2	21.3	91.4	86.8	38	DISENGD	OFF	34.0137	34.0137	34.1016	34.1016	-0.1641	-1.01	-0.42	0.81	-4.73	-3.94	-4.55	-0.1875	机场73	机场68	-0.1875	252960
4	10	12:00:29	-68	14	-8	30	12.25	DOWN	FALSE	FALSE	FALSE	FALSE	FALSE	0.9844	1.0156	0.9922	1.0273	0.9609	0.9883	0.9609	1.0195	1	1.0391	-0.6592	-0.6592	-0.6592	-0.6592	-0.6592	-0.001	-0.001	-0.001	-0.001	-0.001	0.0879	0.0879	0.0063	0.0063	0.0063	0.0063	0.0063	21.2	21.3	91.1	86.5	37.75	DISENGD	OFF	34.0576	34.0576	34.1016	34.1016	-0.2402	0.59	0.71	-1.14	-3.76	-3.72	-3.7	0	机场73	机场68	0	252960
4	10	12:00:30	-68	9	-8	30	12.5	DOWN	FALSE	FALSE	FALSE	FALSE	FALSE	0.9961	0.9961	1	1.0313	0.9805	0.9922	0.9648	1.0039	1.0195	1.0273	-0.6592	-0.6592	-0.6152	-0.6152	-0.6152	-0.001	-0.001	-0.001	-0.001	-0.001	0.0879	0.0879	0.0063	0.0063	0.0063	0.0063	0.0063	21.1	21.3	91.1	86.1	37.5	DISENGD	OFF	34.0576	34.0576	34.1016	34.1016	-0.2402	-1.48	-1.1	-1.87	-3.02	-3.3	-3.08	-0.125	机场73	机场68	-0.125	252960
4	10	12:00:31	-68	5	-8	30	12.75	DOWN	FALSE	FALSE	FALSE	FALSE	FALSE	1.043	0.9883	0.9883	0.9648	1.0039	0.9922	1.0039	1.0195	0.9727	0.9688	-0.6592	-0.6592	-0.6592	-0.6592	-0.6592	-0.001	-0.001	-0.001	-0.001	-0.001	0.0879	0.0879	0.0063	0.0063	0.0063	0.0063	0.0063	21.1	21.2	91	85.8	37.25	DISENGD	OFF	34.0576	34.0576	34.1016	34.1016	-0.2441	-1	-1.36	-2.61	-2.83	-2.62	-2.87	-0.0625	机场73	机场68	-0.0625	252960
4	10	12:00:32	-68	1	-8	30	13	DOWN	FALSE	FALSE	FALSE	FALSE	FALSE	1.0273	0.9609	0.9883	1.0078	0.9961	1.0156	0.9414	1.0586	1.0156	1.0078	-0.6592	-0.6152	-0.6152	-0.6152	-0.6592	-0.001	-0.001	-0.001	-0.001	-0.001	0.1758	0.0879	0.0063	0.0063	0.0063	0.0063	0.0063	21.1	21.3	91.1	85.8	37	DISENGD	OFF	34.0576	34.0576	34.1016	34.1016	-0.2441	-2.45	-2.47	-1.21	-3.22	-3.72	-3.5	0.125	机场73	机场68	0.125	252960
4	10	12:00:33	-68	-1	-8	30	13	DOWN	FALSE	FALSE	FALSE	FALSE	FALSE	0.9961	1.0156	1.0039	0.9805	0.9609	1.0078	1.0156	1.0078	0.9883	1.0039	-0.6592	-0.6592	-0.6592	-0.6592	-0.6592	-0.001	-0.001	-0.001	-0.001	-0.001	0.0879	0.1758	0.0063	0.0063	0.0063	0.0063	0.0063	21.1	21.2	91.1	85.8	37	DISENGD	OFF	34.0576	34.0576	34.1016	34.1016	-0.2402	-4.95	-4.19	-0.54	-4.51	-3.92	-4.28	0	机场73	机场68	0	252960
4	10	12:00:34	-68	-2	-8	30	12.75	DOWN	FALSE	FALSE	FALSE	FALSE	FALSE	0.9883	0.9883	1.0156	0.9844	1.0156	0.9844	0.9883	0.9727	1.0391	1.0078	-0.6592	-0.6592	-0.6592	-0.6592	-0.6592	-0.001	-0.001	-0.001	-0.001	-0.001	0.0879	0.1758	0.0063	0.0063	0.0063	0.0063	0.0063	21.1	21.2	91.3	86.1	37.25	DISENGD	OFF	34.0576	34.0576	34.1016	34.1016	-0.2402	-3.59	-3.21	-1.96	-3.42	-3.37	-3.39	-0.125	机场73	机场68	-0.125	252960
4	10	12:00:35	-69	6	-8	30	12.5	DOWN	FALSE	FALSE	FALSE	FALSE	FALSE	0.9766	1.0117	1.0352	0.9844	0.957	1.0352	1.0313	1.0039	0.9961	0.9844	-0.6592	-0.6592	-0.6592	-0.6592	-0.6592	-0.001	-0.001	-0.001	-0.001	-0.001	0.0879	0.1758	0.0063	0.0063	0.0063	0.0063	0.0063	21.1	21.2	91.4	86.1	37.5	DISENGD	OFF	34.0576	34.0576	34.1455	34.1455	-0.1797	0.38	0.19	-0.65	-3.19	-2.89	-3.21	-0.0625	机场73	机场68	-0.0625	252960
4	10	12:00:36	-68	5	-8	30	12	DOWN	FALSE	FALSE	FALSE	FALSE	FALSE	0.9922	1.0039	1.0195	1.0117	1.0039	1.0117	1.0234	1	0.9883	0.9648	-0.6592	-0.6592	-0.6592	-0.6592	-0.6592	-0.001	-0.001	-0.001	-0.001	-0.001	0.0879	0.0879	0.0063	0.0063	0.0063	0.0063	0.0063	21.1	21.2	91.5	86.1	37.875	DISENGD	OFF	34.0576	34.0576	34.1455	34.1455	-0.1797	-2.24	-1.92	-3.48	-3.12	-1.62	-2.96	-0.0625	机场73	机场68	-0.0625	252960
4	10	12:00:37	-69	9	-8	30	11.5	DOWN	FALSE	FALSE	FALSE	FALSE	FALSE	1.0352	0.9961	0.9766	0.9805	1.0195	1.0469	0.9922	0.9961	0.9961	0.9609	-0.6592	-0.6592	-0.6592	-0.6592	-0.6152	-0.001	-0.001	-0.001	-0.001	-0.001	0.0879	0.0879	0.0063	0.0063	0.0063	0.0063	0.0063	21.1	21.1	91.5	86.5	38.375	DISENGD	OFF	34.0576	34.0576	34.1455	34.1455	-0.082	-2	-1.48	-0.5	-4.34	-4.11	-4.37	0	机场73	机场68	0	252960
4	10	12:00:38	-69	12	-8	30	11	DOWN	FALSE	FALSE	FALSE	FALSE	FALSE	0.9844	0.9922	1.0078	1.0078	0.9883	0.9492	0.9922	1	0.9961	1.0273	-0.6152	-0.6152	-0.6152	-0.6152	-0.6152	-0.001	-0.001	-0.001	-0.001	-0.001	0.1758	0.0879	0.0063	0.0063	0.0063	0.0063	0.0063	21.1	21.1	91.5	86.5	38.875	DISENGD	OFF	34.0576	34.0576	34.1455	34.1455	-0.082	1.74	2.37	-2.19	-4.37	-4.63	-4.19	0.125	机场73	机场68	0.125	252960
4	10	12:00:39	-69	11	-8	30	10.75	DOWN	FALSE	FALSE	FALSE	FALSE	FALSE	1.0195	1.0039	0.9844	0.9961	1.0078	1.0313	0.9883	1.0078	1.0195	0.9922	-0.5713	-0.5713	-0.5713	-0.5273	-0.5273	-0.001	-0.001	-0.001	-0.001	-0.001	0.0879	0.0879	0.0063	0.0063	0.0063	0.0063	0.0063	21.1	21.3	91.4	86.5	39.25	DISENGD	OFF	34.0576	34.0576	34.1455	34.1455	-0.1816	-1.7	-1.96	-1.38	-3.4	-3.55	-3.32	0.0625	机场73	机场68	0.0625	252960
4	10	12:00:40	-69	9	-8	30	10.5	DOWN	FALSE	FALSE	FALSE	FALSE	FALSE	1.0117	1.0078	1.0039	0.9766	1.0039	1.0039	1.0117	0.9961	0.9922	0.957	-0.5273	-0.5273	-0.4834	-0.4834	-0.4395	-0.001	-0.001	-0.001	-0.001	-0.001	0.0879	0.0879	0.0063	0.0063	0.0063	0.0063	0.0063	21.1	21.3	91.2	86.5	39.5	DISENGD	OFF	34.0576	34.0576	34.1455	34.1455	-0.1816	-0.74	-1.3	-2.75	-3.6	-3.66	-3.45	0.125	机场73	机场68	0.125	252960
4	10	12:00:41	-69	6	-8	30	10	DOWN	FALSE	FALSE	FALSE	FALSE	FALSE	1	0.9844	1	1.0078	1.0039	1.0039	0.9844	0.9922	1.0039	1.0078	-0.4395	-0.3955	-0.3955	-0.3955	-0.3516	-0.001	-0.001	-0.001	-0.001	-0.001	0.0879	0.0879	0.0063	0.0063	0.0063	0.0063	0.0063	21.2	21.2	91.1	86.1	39.875	DISENGD	OFF	34.0576	34.0576	34.1455	34.1455	-0.1719	-3.24	-3.35	-3.3	-3.61	-3.42	-3.61	0	机场73	机场68	0	252960
4	10	12:00:42	-69	3	-8	30	9.75	DOWN	FALSE	FALSE	FALSE	FALSE	FALSE	0.9727	1.0273	1.0078	0.9844	0.9844	1.0039	1.0078	0.9883	1.0195	0.9805	-0.3516	-0.3076	-0.3076	-0.3076	-0.2637	-0.001	-0.001	-0.001	-0.001	-0.001	0.1758	0.0879	0.0063	0.0063	0.0063	0.0063	0.0063	21.1	21.2	91	86.1	40.25	DISENGD	OFF	34.0576	34.0137	34.1455	34.1455	-0.1719	-3.63	-3.52	-2.32	-3.29	-3.55	-3.37	0.0625	机场73	机场68	0.0625	252960
4	10	12:00:43	-70	8	-8	30	9.25	DOWN	FALSE	FALSE	FALSE	FALSE	FALSE	1.0117	1.0156	1.0039	0.9922	0.9961	1.0313	0.9922	1.0195	0.9648	1.0039	-0.2637	-0.2637	-0.2637	-0.2197	-0.2197	-0.001	-0.001	-0.001	-0.001	-0.001	0.0879	0.0879	0.0063	0.0063	0.0063	0.0063	0.0063	21.1	21.3	90.5	86.5	40.625	DISENGD	OFF	34.0137	34.0137	34.1016	34.1016	-0.1602	-3.85	-3.92	-2.29	-4.98	-4.27	-5.02	0.0625	机场73	机场68	0.0625	252960
4	10	12:00:44	-69	5	-8	30	9	DOWN	FALSE	FALSE	FALSE	FALSE	FALSE	1.0117	1.0039	0.9883	1.0039	0.9961	0.9883	1	0.9805	1.0078	1	-0.2197	-0.2197	-0.1758	-0.1758	-0.1758	-0.001	-0.001	-0.001	-0.001	-0.001	0.0879	0.1758	0.0063	0.0063	0.0063	0.0063	0.0063	21.1	21.2	89.6	86.5	41.125	DISENGD	OFF	34.0137	34.0137	34.1016	34.1016	-0.1602	-3.53	-3.68	-2.24	-2.82	-2.7	-2.65	0.0625	机场73	机场68	0.0625	252960
4	10	12:00:45	-69	0	-8	30	8.5	DOWN	FALSE	FALSE	FALSE	FALSE	FALSE	0.9688	0.9883	1.0156	1.0117	1	0.9805	0.9961	0.9883	1.0039	1.0039	-0.1758	-0.1318	-0.1318	-0.1318	-0.0879	-0.001	-0.001	-0.001	-0.001	-0.001	0.0879	0.1758	0.0063	0.0063	0.0063	0.0063	0.0063	21.1	21.2	88	85.8	41.625	DISENGD	OFF	34.0137	34.0137	34.1016	34.1016	-0.1367	-1.02	-1.35	-1.24	-4.03	-4.28	-4.17	0.125	机场73	机场68	0.125	252960
4	10	12:00:46	-69	-3	-8	30	8.5	DOWN	FALSE	FALSE	FALSE	FALSE	FALSE	1	1.0078	1.0195	1.0078	0.9883	0.9961	0.9961	1.0078	0.9961	0.9883	-0.0879	-0.0879	-0.0879	-0.0439	-0.0439	-0.001	-0.001	-0.001	-0.001	-0.001	0.0879	0.0879	0.0063	0.0063	0.0063	0.0063	0.0063	21.1	21.2	85.4	84.4	42.125	DISENGD	OFF	34.0137	34.0137	34.1016	34.1016	-0.1367	-1.14	-1	-1.97	-2.3	-2.3	-2.3	0	机场73	机场68	0	252960
4	10	12:00:47	-69	-5	-8	30	8.25	DOWN	FALSE	FALSE	FALSE	FALSE	FALSE	1.0234	1.0117	1.0195	0.9961	1.0078	1.0156	0.9883	0.9961	0.9844	0.9648	-0.0439	-0.0439	-0.0439	-0.0439	-0.0439	-0.001	-0.001	-0.001	-0.001	-0.001	0	0	0.0063	0.0063	0.0063	0.0063	0.0063	21.1	21.2	82.1	82.3	42.625	DISENGD	OFF	34.0576	34.0576	34.1016	34.1016	-0.1406	-2.72	-2.92	-1.98	-3.45	-2.95	-3.54	-0.0625	机场73	机场68	-0.0625	252960
4	10	12:00:48	-69	-5	-8	30	8.5	DOWN	FALSE	FALSE	FALSE	FALSE	FALSE	1.0039	1.0117	0.9766	0.9961	1.0039	1.0078	0.9805	0.9727	1.0117	0.9961	-0.0439	0	0	0	0	-0.001	-0.001	-0.001	-0.001	-0.001	-0.0879	-0.0879	0.0063	0.0063	0.0063	0.0063	0.0063	21.1	21.2	77.9	79.1	43	DISENGD	OFF	34.0576	34.0576	34.1455	34.1455	-0.1406	-2.83	-3.04	-1.97	-3.32	-3.14	-3.41	0.0625	机场73	机场68	0.0625	252960
4	10	12:00:49	-69	-3	-8	30	8.75	DOWN	FALSE	FALSE	FALSE	FALSE	FALSE	0.9688	0.9805	1	1	1.0195	0.9727	0.9844	0.9961	1.0195	1.0078	0	0.0439	0.0439	0.0439	0.0439	-0.001	-0.001	-0.001	-0.001	-0.001	-0.1758	-0.1758	0.0063	0.0063	0.0063	0.0063	0.0063	21.1	21.2	73	74.9	43.25	DISENGD	OFF	34.0576	34.0576	34.1455	34.1455	-0.2109	-0.46	-1.26	-0.71	-3.57	-3.4	-3.43	0	机场73	机场68	0	252960
4	10	12:00:50	-69	-2	-8	30	8.75	DOWN	FALSE	FALSE	FALSE	FALSE	FALSE	0.9805	0.9766	1.0195	1.0195	0.9727	0.9883	0.9844	1.0039	1.0078	1.0156	0.0439	0.0439	0.0439	0.0439	0.0439	-0.001	-0.001	-0.001	-0.001	-0.001	-0.2637	-0.2637	0.0063	0.0063	0.0063	0.0063	0.0063	21	21.1	67.5	70.3	43.375	DISENGD	OFF	34.0576	34.0576	34.1455	34.1455	-0.2109	-2.17	-3.26	-1.23	-3.32	-3.29	-3.29	0	机场73	机场68	0	252960
4	10	12:00:51	-69	-1	-8	30	9	DOWN	FALSE	FALSE	FALSE	FALSE	FALSE	0.9922	1.0117	1	0.9727	0.9961	0.9922	1.0156	1.0117	0.9883	0.9805	0.0439	0	0	0	0	-0.001	-0.001	-0.001	-0.001	-0.001	-0.2637	-0.2637	0.0063	0.0063	0.0063	0.0063	0.0052	21	21.2	61.6	64.7	43.375	DISENGD	OFF	34.0576	34.0576	34.1455	34.1455	-0.2344	-4.29	-4.83	-1.42	-4.05	-4.05	-4.19	-0.125	机场73	机场68	-0.125	252960
4	10	12:00:52	-69	0	-8	30	9	DOWN	FALSE	FALSE	FALSE	FALSE	FALSE	1.0078	1.0234	0.9805	1	1.0313	1.0195	1	1	0.9766	0.9766	0	0	0	0	0	-0.001	-0.001	-0.001	-0.001	-0.001	-0.3516	-0.3516	0.0063	0.0063	0.0063	0.0063	0.0063	20.9	21.1	55.6	59.1	43.375	DISENGD	OFF	34.0576	34.0576	34.1455	34.1455	-0.2344	-0.34	-0.2	0.99	-3.15	-2.86	-3.29	-0.0625	机场73	机场68	-0.0625	252960
4	10	12:00:53	-69	1	-8	30	9	DOWN	FALSE	FALSE	FALSE	FALSE	FALSE	1.0156	0.9961	0.9648	0.9922	1.0234	1.0234	0.9609	0.9922	1.0117	0.9766	0	-0.0439	-0.0439	-0.0439	-0.0439	-0.001	-0.001	-0.001	-0.001	-0.001	-0.3516	-0.3516	0.0063	0.0063	0.0063	0.0063	0.0063	21	21.1	49.6	52.4	43.25	DISENGD	OFF	34.0576	34.0576	34.1455	34.1455	-0.2344	2.64	2.54	-2.1	-3.59	-3.39	-3.74	0	机场73	机场68	0	252960
4	10	12:00:54	-69	1	-8	30	9	DOWN	FALSE	FALSE	FALSE	FALSE	FALSE	1	0.9883	1	1.0156	0.9922	0.9805	1	1	1.0156	1.0156	-0.0439	-0.0439	-0.0439	-0.0439	-0.0439	-0.001	-0.001	-0.001	-0.001	-0.001	-0.3516	-0.3516	0.0063	0.0063	0.0063	0.0063	0.0063	21	21.1	43.8	46.8	43.125	DISENGD	OFF	34.0576	34.0576	34.1455	34.1455	-0.2344	-0.63	-0.46	3.47	-2.78	-2.77	-3	0	机场73	机场68	0	252960
4	10	12:00:55	-69	0	-8	30	8.75	DOWN	FALSE	FALSE	FALSE	FALSE	FALSE	1.0195	1.0078	1.0039	0.9883	1.0117	1.0117	0.9961	0.9922	0.9844	0.9844	-0.0439	-0.0439	-0.0439	-0.0439	-0.0439	-0.001	-0.001	-0.001	-0.001	-0.001	-0.4395	-0.4395	0.0063	0.0063	0.0063	0.0063	0.0063	21.1	21.1	38.2	40.1	42.875	DISENGD	OFF	34.0576	34.0576	34.1455	34.1455	-0.2324	-2.02	-1.16	-0.97	-3.37	-3.45	-3.43	-0.125	机场73	机场68	-0.125	252960
4	10	12:00:56	-69	0	-8	30	8.75	DOWN	FALSE	FALSE	FALSE	FALSE	FALSE	0.9883	0.9961	0.9805	0.9961	0.9961	1.0039	0.9766	0.9883	1.0313	0.9922	-0.0879	-0.0879	-0.0879	-0.0879	-0.0879	-0.001	-0.001	-0.001	-0.001	-0.001	-0.5273	-0.5273	0.0021	0	0	0.001	0.0052	21.1	21.1	33.3	34.8	42.625	DISENGD	OFF	34.0576	34.0576	34.1455	34.1455	-0.2324	-1.22	-1.46	-0.58	-3.29	-3.41	-3.27	-0.125	机场73	机场68	-0.125	252960
4	10	12:00:57	-69	0	-8	30	8.5	DOWN	FALSE	FALSE	FALSE	FALSE	FALSE	1.0039	1.0156	1.0117	0.9844	0.9844	0.9922	0.9922	1.0195	0.9883	1.0117	-0.1318	-0.1318	-0.1318	-0.1318	-0.1318	-0.001	-0.001	-0.001	-0.001	-0.001	-0.5273	-0.5273	0.0042	0.0042	0.0042	0.0042	0.0042	21	21.1	28.9	29.5	42.5	DISENGD	OFF	34.0576	34.0576	34.1455	34.1455	-0.2344	-3.31	-3.46	-0.35	-3.6	-3.47	-3.64	-0.125	机场73	机场68	-0.125	252960
4	10	12:00:58	-69	0	-8	30	8.5	DOWN	FALSE	FALSE	FALSE	FALSE	FALSE	0.9961	1.0039	1.0078	1.0234	0.9883	0.9883	0.9688	1.0117	1.0078	1.0156	-0.1318	-0.1758	-0.1758	-0.1758	-0.1758	-0.001	-0.001	-0.001	-0.001	-0.001	-0.6152	-0.6152	0.0052	0.0042	0.0052	0.0042	0.0042	21	21.1	25	25	42.25	DISENGD	OFF	34.0576	34.0576	34.1455	34.1455	-0.2344	5.12	5.01	1.72	-3.66	-3.75	-3.73	0	机场73	机场68	0	252960
4	10	12:00:59	-69	0	-8	30	8.5	DOWN	FALSE	FALSE	FALSE	FALSE	FALSE	1	0.9727	0.9766	1	1.0195	1	1.0039	0.9961	1	1	-0.1758	-0.1758	-0.1758	-0.1758	-0.1758	-0.001	-0.001	-0.001	-0.001	-0.001	-0.6152	-0.6152	0.0021	0.0031	0.0042	0.0052	0.0042	20.9	21.1	21.4	20.7	42.125	DISENGD	OFF	34.0576	34.0576	34.1455	34.1455	-0.2363	0.8	0.54	-0.02	-3.54	-3.52	-3.47	0	机场73	机场68	0	252960
4	10	12:01:00	-69	0	-8	30	8.5	DOWN	FALSE	FALSE	FALSE	FALSE	FALSE	1.0195	0.9961	1.0078	0.9961	0.9727	1	0.9922	1.0156	0.9961	1.0039	-0.2197	-0.1758	-0.2197	-0.2197	-0.2197	-0.001	-0.001	-0.001	-0.001	-0.001	-0.6152	-0.6152	-0.001	-0.001	0	0	0.001	21	21.1	18.1	17.2	42	DISENGD	OFF	34.0576	34.0137	34.1455	34.1016	-0.2363	-1.66	-1.93	0.39	-3.93	-3.46	-4.01	0	机场73	机场68	0	252960
4	10	12:01:01	-69	0	-8	30	8.5	DOWN	FALSE	FALSE	FALSE	FALSE	FALSE	1.0117	0.9961	1.0117	0.9844	0.9883	0.9883	0.9922	1.0117	1.0078	1	-0.2197	-0.2197	-0.2197	-0.1758	-0.1758	-0.001	-0.001	-0.001	-0.001	-0.001	-0.5273	-0.6152	-0.001	-0.001	-0.001	-0.001	-0.001	21	21.1	15.2	13.7	41.75	DISENGD	OFF	34.0137	34.0137	34.1016	34.1016	-0.2402	-4.71	-4.59	-4.33	-2.42	-2.69	-2.37	0	机场73	机场68	0	252960
4	10	12:01:02	-69	0	-8	30	8.75	DOWN	FALSE	FALSE	FALSE	FALSE	FALSE	1.0039	1	1.0078	1.0039	0.9961	0.9922	0.9961	0.9844	0.9844	1.0117	-0.2197	-0.1758	-0.1758	-0.1758	-0.1758	-0.001	-0.001	-0.001	-0.001	-0.001	-0.3516	-0.4395	-0.0021	-0.0021	-0.0021	-0.001	-0.0021	21	21.1	12.6	10.9	41.5	DISENGD	OFF	34.0137	34.0137	34.1016	34.1016	-0.2402	1.33	0.87	-1.25	-2.05	-3.66	-1.98	-0.0625	机场73	机场68	-0.0625	252960
4	10	12:01:03	-69	0	-8	30	8.75	DOWN	FALSE	FALSE	FALSE	FALSE	FALSE	1	1	0.9844	1	0.9922	1	1	0.9883	1	0.9961	-0.1758	-0.1758	-0.1758	-0.1758	-0.1758	-0.001	-0.001	-0.001	-0.001	-0.001	-0.2637	-0.2637	-0.001	-0.001	-0.001	-0.001	-0.001	21	21.1	10.3	8.1	41.375	DISENGD	OFF	34.0137	34.0137	34.1016	34.1016	-0.2402	4.12	4.12	-3.37	-3.52	-3.97	-3.03	-0.0625	机场73	机场68	-0.0625	252960
4	10	12:01:04	-70	8	-8	30	9	DOWN	FALSE	FALSE	FALSE	FALSE	FALSE	0.9844	0.9883	0.9961	1	1.0039	1	0.9844	0.9961	1.0039	0.9922	-0.1758	-0.1758	-0.1758	-0.1758	-0.1758	-0.001	-0.001	-0.001	-0.001	-0.001	-0.1758	-0.1758	-0.001	-0.001	-0.001	-0.001	-0.001	21	21.1	8.2	5.6	41.125	DISENGD	OFF	34.0137	34.0137	34.1016	34.1016	-0.2402	4.08	4.13	1.12	-4.64	-3.8	-4.63	-0.0625	机场73	机场68	-0.0625	252960
4	10	12:01:05	-69	6	-8	30	9.25	DOWN	FALSE	FALSE	FALSE	FALSE	FALSE	0.9844	1.0117	1.0078	0.9961	0.9961	0.9844	1.0039	1.0039	1.0156	0.9922	-0.1318	-0.1318	-0.1318	-0.1758	-0.1758	-0.001	-0.001	-0.001	-0.001	-0.001	-0.0879	-0.1758	-0.001	-0.001	-0.001	-0.001	-0.001	21	21.1	6.5	3.2	40.875	DISENGD	OFF	34.0137	34.0137	34.1016	34.1016	-0.2402	-0.33	-0.06	-3.68	-3.61	-3.78	-3.67	0	机场73	机场68	0	252960
4	10	12:01:06	-69	2	-8	30	9.25	DOWN	FALSE	FALSE	FALSE	FALSE	FALSE	0.9961	1.0078	1.0078	0.9844	0.9922	1.0195	1.0039	0.9844	1.0078	1.0039	-0.1758	-0.1758	-0.1758	-0.1758	-0.1758	-0.001	-0.001	-0.001	-0.001	-0.001	-0.0879	-0.0879	-0.001	-0.001	-0.001	-0.001	-0.001	21.1	21.1	5.2	1.4	40.625	DISENGD	OFF	34.0137	34.0137	34.1016	34.1016	-0.2402	2.64	2.58	1.03	-4.6	-4.04	-4.65	0.0625	机场73	机场68	0.0625	252960
4	10	12:01:07	-69	-2	-8	30	9.5	DOWN	FALSE	FALSE	FALSE	FALSE	FALSE	1.0195	0.9883	0.9922	0.9961	1	1.0313	0.9883	0.9883	1	1.0078	-0.1758	-0.1758	-0.1758	-0.1758	-0.1758	-0.001	-0.001	-0.001	-0.001	-0.001	-0.0879	-0.0879	-0.001	-0.001	-0.001	-0.001	-0.001	21.1	21.1	4.2	359.6	40.5	DISENGD	OFF	34.0137	34.0137	34.1016	34.1016	-0.2422	0.04	0.05	0.1	-0.16	-0.1	0.01	0	机场73	机场68	0	252960
4	10	12:01:08	-69	-4	-8	30	9.75	DOWN	FALSE	FALSE	FALSE	FALSE	FALSE	0.9961	1.0234	1.0078	0.9961	0.9844	0.9805	1.0039	0.9766	1.0273	1.0156	-0.1758	-0.1758	-0.1758	-0.1758	-0.1758	-0.001	-0.001	-0.001	-0.001	-0.001	0	0	-0.0021	-0.0021	-0.0021	-0.0021	-0.0021	21.1	21	3.8	358.6	40.25	DISENGD	OFF	34.0576	34.0576	34.1016	34.1016	-0.2422	0.01	0	0	-0.04	-0.04	-0.04	0.0625	机场73	机场68	0.0625	252960
4	10	12:01:09	-69	-4	-8	30	10	DOWN	FALSE	FALSE	FALSE	FALSE	FALSE	0.9922	1.0078	1.0273	0.9961	0.9844	0.9844	0.9844	1.0156	1.0195	0.9805	-0.1758	-0.1758	-0.1758	-0.1758	-0.1758	-0.001	-0.001	-0.001	-0.001	-0.001	0.1758	0.0879	-0.0021	-0.0021	-0.0021	-0.0021	-0.0021	21.2	21	3.6	358.2	40	DISENGD	OFF	34.0576	34.0576	34.1016	34.1016	-0.2598	0	0	0	0	0	-0.01	0	机场73	机场68	0	252960
4	10	12:01:10	-69	-3	-8	30	10	DOWN	FALSE	FALSE	FALSE	FALSE	FALSE	1.0117	0.9727	1.0117	1.0117	1.0117	1.0156	0.9883	0.9883	0.9961	1	-0.1758	-0.1758	-0.1758	-0.1758	-0.1758	-0.001	-0.001	-0.001	-0.001	-0.001	0.0879	0.1758	-0.0021	-0.0031	-0.0031	-0.0021	-0.0021	21.2	21.1	3.4	358.2	39.875	DISENGD	OFF	34.0576	34.0576	34.1016	34.1016	-0.2598	0	0	0.01	0	0	0	-0.0625	机场73	机场68	-0.0625	252960
4	10	12:01:11	-69	-2	-8	30	10.25	DOWN	FALSE	FALSE	FALSE	FALSE	FALSE	1.0352	1.0078	0.9922	0.9883	1.0117	1.0078	0.9922	0.957	1.0195	0.9844	-0.1758	-0.1318	-0.1318	-0.1318	-0.1318	-0.001	-0.001	-0.001	-0.001	-0.001	0.0879	0.0879	-0.0021	-0.0021	-0.0021	-0.0021	-0.0021	21.3	21.1	3.3	357.9	39.625	DISENGD	OFF	34.0576	34.0576	34.1016	34.1016	0.0664	-1.09	-0.7	-0.72	-1.57	-1.45	-0.52	0	机场73	机场68	0	252960
4	10	12:01:12	-69	-1	-8	30	10.5	DOWN	FALSE	FALSE	FALSE	FALSE	FALSE	1.0039	0.9922	0.9961	0.9922	0.9961	0.9922	0.9688	1.0156	1.0156	1	-0.1318	-0.1318	-0.1318	-0.1318	-0.1318	-0.001	-0.001	-0.001	-0.001	-0.001	0	0	-0.0021	-0.0021	-0.0021	-0.0021	-0.0021	21.2	21.1	3.3	357.9	39.5	DISENGD	OFF	34.0576	34.0576	34.1016	34.1016	0.0664	2.21	2.33	-0.76	-3.83	-3.64	-4.38	-0.0625	机场73	机场68	-0.0625	252960
4	10	12:01:13	-69	0	-8	30	10.75	DOWN	FALSE	FALSE	FALSE	FALSE	FALSE	1	0.9727	1.0078	1.0039	1	0.9844	1.0234	1.0117	1.0039	1.0117	-0.1318	-0.1318	-0.1318	-0.1318	-0.1318	-0.001	-0.001	-0.001	-0.001	-0.001	0	0	-0.0031	-0.0021	-0.0021	-0.0021	-0.0021	21.3	21.1	3.2	357.9	39.25	DISENGD	OFF	34.0576	34.0576	34.1016	34.1016	0.9648	-2.9	-2.87	-2.48	-4.59	-4.65	-4.47	0	机场73	机场68	0	252960
4	10	12:01:14	-69	0	-8	30	11	DOWN	FALSE	FALSE	FALSE	FALSE	FALSE	1.0078	1.0234	0.9844	1.0156	0.9688	1.0234	1	1.0039	0.9648	1.0234	-0.1758	-0.1318	-0.1758	-0.1758	-0.1318	-0.001	-0.001	-0.001	-0.001	-0.001	0	0	-0.0031	-0.0031	-0.0031	-0.0031	-0.0031	21.3	21.1	3	357.9	39	DISENGD	OFF	34.0576	34.0576	34.1016	34.1016	0.9648	1.25	1.11	-1.47	-2.15	-2.67	-2.04	0	机场73	机场68	0	252960
4	10	12:01:15	-69	1	-8	30	11	DOWN	FALSE	FALSE	FALSE	FALSE	FALSE	0.9922	0.9883	0.9688	0.9883	1	1.0078	1	0.9961	1.0078	0.9922	-0.1318	-0.1318	-0.1318	-0.1318	-0.1318	-0.001	-0.001	-0.001	-0.001	-0.001	0	0	-0.0021	-0.0031	-0.0031	-0.0031	-0.0031	21.2	21.1	2.6	357.5	38.875	DISENGD	OFF	34.0576	34.0576	34.1016	34.1016	0.5137	-2.45	-2.57	-1.71	-3.23	-3.55	-3.21	-0.0625	机场73	机场68	-0.0625	252960
4	10	12:01:16	-70	8	-8	30	11.25	DOWN	FALSE	FALSE	FALSE	FALSE	FALSE	0.9961	0.9688	1	1.0039	1.0078	0.9883	1	1.0352	0.9883	1.0078	-0.1318	-0.1318	-0.1318	-0.1318	-0.1318	-0.001	-0.001	-0.001	-0.001	-0.001	0	0	-0.0031	-0.0031	-0.0021	-0.0021	-0.0021	21.1	21.1	2.4	357.2	38.625	DISENGD	OFF	34.0576	34.0576	34.1016	34.1016	0.5137	3.16	2.97	0.27	-2.13	-2.71	-2.19	0	机场73	机场68	0	252960
4	10	12:01:17	-69	6	-8	30	11.5	DOWN	FALSE	FALSE	FALSE	FALSE	FALSE	1.0234	1.0313	1.0039	1.0195	0.9766	0.9922	1.0313	1.0117	0.9688	1.0156	-0.1318	-0.1318	-0.1318	-0.1318	-0.1318	-0.001	-0.001	-0.001	-0.001	-0.001	0	0	-0.0031	-0.0031	-0.0031	-0.0031	-0.0031	21.1	21.1	2.1	356.8	38.5	DISENGD	OFF	34.0576	34.0576	34.1016	34.1016	-0.248	1.59	1.39	-2.75	-2.44	-3.81	-2.54	-0.0625	机场73	机场68	-0.0625	252960
4	10	12:01:18	-69	2	-8	30	11.75	DOWN	FALSE	FALSE	FALSE	FALSE	FALSE	1.0156	1.0234	1.0039	0.9766	1.0117	1	0.9961	0.9766	1.0078	0.9609	-0.1318	-0.1318	-0.1318	-0.1318	-0.1318	-0.001	-0.001	-0.001	-0.001	-0.001	0	0	-0.0031	-0.0031	-0.0031	-0.0031	-0.0031	21.1	21.1	2	356.5	38.25	DISENGD	OFF	34.0576	34.0576	34.1016	34.1016	-0.248	2.21	1.99	0.6	-3.39	-3.27	-3.53	-0.125	机场73	机场68	-0.125	252960
4	10	12:01:19	-69	-2	-8	30	12	DOWN	FALSE	FALSE	FALSE	FALSE	FALSE	1.043	0.9961	0.9961	1	1.0078	0.9922	0.9961	0.9766	0.9883	1.0117	-0.1318	-0.1318	-0.1318	-0.1318	-0.1318	-0.001	-0.001	-0.001	-0.001	-0.001	0	0	-0.0031	-0.0031	-0.0031	-0.0031	-0.0031	21.1	21.1	2	356.5	38	DISENGD	OFF	34.0576	34.0576	34.1016	34.1016	-0.2637	-1.08	-1.12	-3.89	-2.05	-2.78	-2.27	0	机场73	机场68	0	252960
4	10	12:01:20	-69	-4	-8	30	12	DOWN	FALSE	FALSE	FALSE	FALSE	FALSE	0.9922	1	0.9883	1.0195	1.0273	0.9648	0.957	1.0039	0.9922	0.9883	-0.1318	-0.1318	-0.1318	-0.1318	-0.1318	-0.001	-0.001	-0.001	-0.001	-0.001	0	0	-0.0031	-0.0031	-0.0031	-0.0031	-0.0031	21.1	21.1	2	356.5	37.875	DISENGD	OFF	34.0576	34.0576	34.1016	34.1016	-0.2637	1.63	1.52	-0.08	-3.36	-3.1	-3.34	0	机场73	机场68	0	252960
4	10	12:01:21	-69	-4	-8	30	12.25	DOWN	FALSE	FALSE	FALSE	FALSE	FALSE	0.9648	1.0156	0.9883	1.0195	0.9922	1	1.0039	0.9844	0.9961	1.0195	-0.1318	-0.1318	-0.1318	-0.1318	-0.1318	-0.001	-0.001	-0.001	-0.001	-0.001	0.0879	0.0879	-0.0042	-0.0031	-0.0031	-0.0031	-0.0031	21.2	21.1	2.1	356.5	37.625	DISENGD	OFF	34.0576	34.0576	34.1016	34.1016	-0.2695	2.47	2.57	-3.68	-3.33	-3.47	-3.37	0	机场73	机场68	0	252960
4	10	12:01:22	-69	-4	-8	30	12.5	DOWN	FALSE	FALSE	FALSE	FALSE	FALSE	0.9766	0.9609	1.0391	1.0352	0.9766	0.9844	0.9766	1.0156	1.0039	1.0039	-0.1318	-0.1318	-0.1318	-0.1318	-0.1758	-0.001	-0.001	-0.001	-0.001	-0.001	0.0879	0.0879	-0.0031	-0.0031	-0.0031	-0.0031	-0.0031	21.2	21.1	2.1	356.5	37.5	DISENGD	OFF	34.0576	34.0576	34.1016	34.1016	-0.2695	1.18	1.25	-1.28	-2.88	-3.13	-2.79	0	机场73	机场68	0	252960
4	10	12:01:23	-69	-2	-8	30	12.75	DOWN	FALSE	FALSE	FALSE	FALSE	FALSE	1.0234	0.9961	0.9961	1.0234	0.9688	0.9883	1.0078	1.0156	1.0039	0.9883	-0.1758	-0.1758	-0.1758	-0.1758	-0.1758	-0.001	-0.001	-0.001	-0.001	-0.001	0.1758	0.1758	-0.0031	-0.0031	-0.0031	-0.0031	-0.0031	21.1	21.1	2.2	356.5	37.375	DISENGD	OFF	34.0576	34.0576	34.1016	34.1016	-0.2637	2.03	1.9	-2.81	-3.26	-3.74	-3.26	-0.0625	机场73	机场68	-0.0625	252960
4	10	12:01:24	-69	-1	-8	30	12.75	DOWN	FALSE	FALSE	FALSE	FALSE	FALSE	0.9883	1.0234	1.0391	0.9805	0.9766	0.9453	1.0156	0.9922	0.9883	0.9961	-0.1758	-0.1758	-0.1758	-0.1758	-0.1758	-0.001	-0.001	-0.001	-0.001	-0.001	0.0879	0.1758	-0.0042	-0.0042	-0.0042	-0.0042	-0.0031	21.2	21.1	2.2	356.5	37.125	DISENGD	OFF	34.0576	34.0576	34.1016	34.1016	-0.2637	-1.58	-2.07	-0.21	-3.63	-3.66	-3.45	0	机场73	机场68	0	252960
4	10	12:01:25	-69	0	-8	30	13	DOWN	FALSE	FALSE	FALSE	FALSE	FALSE	1.0156	0.9922	1.0117	0.9766	0.9922	1.0313	0.9766	1.0039	0.9766	0.9766	-0.1758	-0.1758	-0.1758	-0.1758	-0.1758	-0.001	-0.001	-0.001	-0.001	-0.001	0.0879	0.0879	-0.0042	-0.0042	-0.0042	-0.0042	-0.0042	21.1	21.1	2.3	356.5	37	DISENGD	OFF	34.0576	34.0576	34.1016	34.1016	0.1738	0.63	1.11	-0.93	-3.72	-3.14	-3.95	-0.0625	机场73	机场68	-0.0625	252960
4	10	12:01:26	-69	1	-8	30	13.25	DOWN	FALSE	FALSE	FALSE	FALSE	FALSE	1.0078	0.957	0.9844	0.9766	0.9844	1	0.9805	1	1.0547	0.9844	-0.1758	-0.1758	-0.1318	-0.1758	-0.1758	-0.001	-0.001	-0.001	-0.001	-0.001	0.0879	0.0879	-0.0031	-0.0031	-0.0031	-0.0042	-0.0042	21.1	21.1	2.3	356.8	36.75	DISENGD	OFF	34.0576	34.0576	34.1016	34.1016	0.1738	-1.02	-0.74	0.1	-3.6	-2.91	-3.67	0	机场73	机场68	0	252960
4	10	12:01:27	-69	1	-8	30	13.5	DOWN	FALSE	FALSE	FALSE	FALSE	FALSE	1.0156	1.0156	1.0117	1.0195	1.0039	0.9922	0.9883	1.0273	0.9805	0.9883	-0.1758	-0.1758	-0.1758	-0.1758	-0.1758	-0.001	-0.001	-0.001	-0.001	-0.001	0.0879	0.0879	-0.0042	-0.0031	-0.0042	-0.0031	-0.0031	21.2	21.1	2.4	356.8	36.625	DISENGD	OFF	34.0576	34.0576	34.1016	34.1016	-0.2617	0.72	0.49	1.63	-4.19	-4.14	-4.14	-0.0625	机场73	机场68	-0.0625	252960
4	10	12:01:28	-69	0	-8	30	13.75	DOWN	FALSE	FALSE	FALSE	FALSE	FALSE	1	1.0391	0.9922	1.0195	1.0039	1.0117	0.9766	1.0195	1.0039	0.9961	-0.1758	-0.1758	-0.1758	-0.1758	-0.1758	-0.001	-0.001	-0.001	-0.001	-0.001	0.0879	0.0879	-0.0042	-0.0031	-0.0042	-0.0042	-0.0031	21.2	21.1	2.4	356.8	36.375	DISENGD	OFF	34.0576	34.0576	34.1016	34.1016	-0.2617	4.41	4.25	-1.86	-2.9	-2.52	-2.76	-0.125	机场73	机场68	-0.125	252960
4	10	12:01:29	-69	0	-8	30	13.75	DOWN	FALSE	FALSE	FALSE	FALSE	FALSE	1.0039	0.9648	0.9961	0.9844	0.9883	0.9883	0.9922	1	1	1.0234	-0.1758	-0.1758	-0.1758	-0.1758	-0.1758	-0.001	-0.001	-0.001	-0.001	-0.001	0	0	-0.0031	-0.0031	-0.0031	-0.0031	-0.0031	21.1	21.1	2.4	356.8	36.125	DISENGD	OFF	34.0576	34.0576	34.1016	34.1016	-0.1738	1.84	1.74	-2.94	-2.12	-3.51	-2.52	-0.25	机场73	机场68	-0.25	252960
4	10	12:01:30	-69	0	-8	30	14	DOWN	FALSE	FALSE	FALSE	FALSE	FALSE	0.9766	0.9922	0.9961	1	1.0078	0.9766	1.0156	0.9922	1	0.9961	-0.1758	-0.1758	-0.1318	-0.1758	-0.1758	-0.001	-0.001	-0.001	-0.001	-0.001	0	0	-0.0031	-0.0042	-0.0031	-0.0031	-0.0031	21.1	21.1	2.4	356.8	36	DISENGD	OFF	34.0576	34.0576	34.1016	34.1016	-0.1738	1.21	1.21	0.1	-3.85	-3.82	-3.98	-0.125	机场73	机场68	-0.125	252960
4	10	12:01:31	-69	0	-8	30	14.25	DOWN	FALSE	FALSE	FALSE	FALSE	FALSE	1.0039	1.0195	1.0078	0.9727	0.9883	1.0234	1.0195	1	0.9688	1.0117	-0.1758	-0.1758	-0.1758	-0.1758	-0.1758	-0.001	-0.001	-0.001	-0.001	-0.001	0	0	-0.0031	-0.0031	-0.0042	-0.0042	-0.0042	21.1	21.2	2.4	356.8	35.75	DISENGD	OFF	34.0576	34.0576	34.1016	34.1016	0.3789	2.34	2.36	-2.27	-1.77	-2.47	-1.88	0	机场73	机场68	0	252960
4	10	12:01:32	-69	0	-8	30	14.25	DOWN	FALSE	FALSE	FALSE	FALSE	FALSE	1	1	1.0039	0.9922	1.0117	1	1.0078	0.9844	0.9922	1.0078	-0.1758	-0.1758	-0.1758	-0.1758	-0.1758	-0.001	-0.001	-0.001	-0.001	-0.001	0	0	0.0042	0.0042	0.001	-0.0031	-0.0042	21.1	21.1	2.3	356.8	35.625	DISENGD	OFF	34.0576	34.0576	34.1016	34.1016	0.3789	-0.18	0.37	-3.95	-2.76	-3.97	-4.19	0.0625	机场73	机场68	0.0625	252960
4	10	12:01:33	-69	0	-8	30	14.5	DOWN	FALSE	FALSE	FALSE	FALSE	FALSE	1.0391	0.9883	0.9609	0.9844	1.0039	1	1.0156	1.0078	0.9805	0.9883	-0.1758	-0.1758	-0.1318	-0.1758	-0.1758	-0.001	-0.001	-0.001	-0.001	-0.001	0	0	-0.0021	-0.0021	-0.0021	-0.001	0	21.1	21.2	2.2	356.8	35.375	DISENGD	OFF	34.0576	34.0576	34.1016	34.1016	0.2188	-1.59	-1.52	-4.37	-2.92	-2.84	-2.88	0	机场73	机场68	0	252960
4	10	12:01:34	-69	0	-8	30	14.75	DOWN	FALSE	FALSE	FALSE	FALSE	FALSE	0.9883	0.9961	1	0.9844	1	0.9688	0.9727	0.9805	1.0078	1.0273	-0.1758	-0.1758	-0.1758	-0.1758	-0.1758	-0.001	-0.001	-0.001	-0.001	-0.001	0	0	-0.0021	-0.0021	-0.0021	-0.0021	-0.0021	21.1	21.1	2.1	356.8	35.25	DISENGD	OFF	34.0576	34.0576	34.1016	34.1016	0.2188	-0.37	-0.59	-1.24	-3.61	-4.05	-4.07	-0.1875	机场73	机场68	-0.1875	252960
4	10	12:01:35	-69	0	-8	30	15	DOWN	FALSE	FALSE	FALSE	FALSE	FALSE	0.9922	1	0.9766	1.0039	1.0117	1.0313	0.9805	1.0039	0.9961	1	-0.1758	-0.1758	-0.1758	-0.1758	-0.1758	-0.001	-0.001	-0.001	-0.001	-0.001	-0.0879	0	0.001	0.0042	0.0052	0.0052	0.0042	21.1	21.1	2	356.5	35	DISENGD	OFF	34.0576	34.0576	34.1016	34.1016	-0.2695	0.95	0.53	1.29	-3.05	-3.49	-3.14	0	机场73	机场68	0	252960
4	10	12:01:36	-69	0	-8	30	15	DOWN	FALSE	FALSE	FALSE	FALSE	FALSE	1.0313	0.9688	0.9766	1.0117	1.0234	0.9727	1	1.0156	1.0078	0.9922	-0.1758	-0.1758	-0.1758	-0.1318	-0.1318	-0.001	-0.001	-0.001	-0.001	-0.001	0	-0.1758	-0.001	-0.001	-0.001	-0.001	0	21.1	21.1	2.1	356.5	34.875	DISENGD	OFF	34.0576	34.0576	34.1016	34.1016	-0.2695	4.19	4.16	-1.2	-2.82	-2.93	-2.56	0.1875	机场73	机场68	0.1875	252960
4	10	12:01:37	-69	0	-8	30	15.25	DOWN	FALSE	FALSE	FALSE	FALSE	FALSE	1.0117	1	0.9727	0.9766	1.0156	0.9961	0.9766	1	1.0078	1.0273	-0.1318	-0.1318	-0.1318	-0.1318	-0.1318	-0.001	-0.001	-0.001	-0.001	-0.001	0	0	-0.001	-0.001	-0.001	-0.001	-0.001	21.1	21.2	2.1	356.5	34.625	DISENGD	OFF	34.0576	34.0576	34.1016	34.1016	0.2676	2.13	2.07	-1	-3.45	-3.17	-3.33	0	机场73	机场68	0	252960
4	10	12:01:38	-69	0	-8	30	15.5	DOWN	FALSE	FALSE	FALSE	FALSE	FALSE	1.0078	0.9922	0.9961	1.0156	0.9922	0.9883	0.9844	0.9883	0.9883	0.9883	-0.1758	-0.1758	-0.1758	-0.1758	-0.1758	-0.001	-0.001	-0.001	-0.001	-0.001	0	0	0.0052	0.0042	0.0042	0.0042	0.0042	21.1	21.2	2.1	356.5	34.5	DISENGD	OFF	34.0576	34.0576	34.1016	34.1016	0.2676	3.69	3.66	1.26	-2.47	-3.38	-2.78	-0.125	机场73	机场68	-0.125	252960
4	10	12:01:39	-69	0	-8	30	15.75	DOWN	FALSE	FALSE	FALSE	FALSE	FALSE	0.9883	1	0.9609	1	0.9688	1.0078	0.9844	1.0313	1.0117	0.9844	-0.1758	-0.1758	-0.1758	-0.1758	-0.2197	-0.001	-0.001	-0.001	-0.001	-0.001	0.0879	0	0.0042	0.0042	0.0052	0.0052	0.0052	21.1	21.3	2.1	356.5	34.25	DISENGD	OFF	34.0576	34.0576	34.1016	34.1016	-0.1074	-0.49	-0.05	1.19	-3.71	-4.24	-3.91	-0.0625	机场73	机场68	-0.0625	252960
4	10	12:01:40	-69	0	-8	30	15.75	DOWN	FALSE	FALSE	FALSE	FALSE	FALSE	0.9805	0.9805	1.0195	1.0117	1.0195	0.9922	1.0117	1.0156	0.9961	0.9883	-0.2197	-0.2197	-0.2197	-0.2197	-0.2197	-0.001	-0.001	-0.001	-0.001	-0.001	0	0	0.0063	0.0073	0.0031	0.0042	0.0052	21.1	21.3	2.1	356.5	34.125	DISENGD	OFF	34.0576	34.0576	34.1016	34.1016	-0.1074	-0.97	-1.13	2.25	-2.49	-3.13	-2.81	0	机场73	机场68	0	252960
4	10	12:01:41	-69	0	-8	30	16	DOWN	FALSE	FALSE	FALSE	FALSE	FALSE	0.9727	1	0.9766	1.0156	0.9922	0.9688	1.0117	1.0039	1.0039	1.0117	-0.2197	-0.2197	-0.2197	-0.2197	-0.2197	-0.001	-0.001	-0.001	-0.001	-0.001	0	0	0	0	0.001	0.0021	0.0052	21.1	21.2	2.1	356.5	33.875	DISENGD	OFF	34.0576	34.0576	34.1016	34.1016	-0.2598	-0.6	-0.91	2.29	-3.12	-3.72	-3.01	-0.125	机场73	机场68	-0.125	252960
4	10	12:01:42	-69	0	-8	30	16.25	DOWN	FALSE	FALSE	FALSE	FALSE	FALSE	0.9805	1.0156	1.0195	1	0.9805	1.0273	1.0039	1	0.9688	0.9922	-0.2197	-0.2197	-0.2197	-0.1758	-0.1758	-0.001	-0.001	-0.001	-0.001	-0.001	0	0	0	0	0	-0.001	0	21.1	21.2	2.1	356.5	33.75	DISENGD	OFF	34.0576	34.0576	34.1016	34.1016	-0.2598	0.83	0.37	1.72	-2.54	-2.98	-2.67	0	机场73	机场68	0	252960
4	10	12:01:43	-69	0	-8	30	16.5	DOWN	FALSE	FALSE	FALSE	FALSE	FALSE	1.0195	1.0117	0.9844	0.9883	1	1.0117	0.9961	1.0039	1.0117	0.9961	-0.1758	-0.1758	-0.1758	-0.1758	-0.1758	-0.001	-0.001	-0.001	-0.001	-0.001	0	0	0.001	0.001	0.0063	0.0052	0.0021	21.1	21.2	2.1	356.5	33.5	DISENGD	OFF	34.0576	34.0576	34.1016	34.1016	-0.2656	0.19	0	0.37	-3.27	-3.18	-3.11	0	机场73	机场68	0	252960
4	10	12:01:44	-69	0	-8	30	16.5	DOWN	FALSE	FALSE	FALSE	FALSE	FALSE	0.9844	0.9688	1.0039	1.0117	0.9883	1.0078	0.9609	1.0313	0.9727	0.9844	-0.1758	-0.1758	-0.1758	-0.1758	-0.1758	-0.001	-0.001	-0.001	-0.001	-0.001	0	0	0	0	-0.001	0	0	21.1	21.2	2.1	356.5	33.375	DISENGD	OFF	34.0576	34.0576	34.1016	34.1016	-0.2656	0.53	0.08	2.37	-3.98	-3.76	-4.01	0.0625	机场73	机场68	0.0625	252960
4	10	12:01:45	-69	0	-8	30	16.75	DOWN	FALSE	FALSE	FALSE	FALSE	FALSE	1.0078	1.0039	1.0273	0.9688	0.9922	0.9844	1	1	1.0078	1.043	-0.1758	-0.1758	-0.1758	-0.1758	-0.1758	-0.001	-0.001	-0.001	-0.001	-0.001	0.0879	0.0879	0	0	0	0	0	21.1	21.2	2.1	356.5	33.125	DISENGD	OFF	34.0576	34.0576	34.1016	34.1016	-0.2617	1.23	1.12	1.83	-4.34	-3.82	-4.15	-0.125	机场73	机场68	-0.125	252960
4	10	12:01:46	-69	0	-8	30	17	DOWN	FALSE	FALSE	FALSE	FALSE	FALSE	0.9844	0.9844	0.9961	1	1	1	1	0.9609	1.0039	1.0234	-0.1758	-0.1758	-0.1758	-0.1758	-0.1758	-0.001	-0.001	-0.001	-0.001	-0.001	0.0879	0.0879	-0.001	-0.001	-0.001	-0.001	-0.001	21.1	21.2	2.1	356.5	33	DISENGD	OFF	34.0576	34.0576	34.1016	34.1016	-0.2617	-0.35	-0.45	3.58	-3.06	-2.94	-3.04	0	机场73	机场68	0	252960
4	10	12:01:47	-69	0	-8	30	17.25	DOWN	FALSE	FALSE	FALSE	FALSE	FALSE	0.9883	1.0234	0.9688	0.9648	0.9961	1.043	1.0195	1	0.9688	1	-0.1758	-0.2197	-0.2197	-0.2197	-0.2197	-0.001	-0.001	-0.001	-0.001	-0.001	0.2637	0.1758	-0.001	-0.001	-0.001	-0.001	-0.001	21.2	21.2	2.1	356.5	32.75	DISENGD	OFF	34.0576	34.0576	34.1016	34.1016	-0.2324	1.07	0.91	0.36	-2.03	-3.09	-2.7	-0.0625	机场73	机场68	-0.0625	252960
4	10	12:01:48	-68	-8	-8	30	17.25	DOWN	FALSE	FALSE	FALSE	FALSE	FALSE	0.9844	0.9961	1.0156	1.0234	0.9883	1	0.9844	1.0039	1	1.0195	-0.2197	-0.1758	-0.1758	-0.1758	-0.1758	-0.001	-0.001	-0.001	-0.001	-0.001	0.1758	0.1758	0.0073	-0.001	-0.001	-0.001	-0.001	21.1	21.2	2.1	356.5	32.625	DISENGD	OFF	34.0576	34.0576	34.1016	34.1016	-0.2324	1.43	1.68	-3.83	-3.88	-2.84	-3.51	0.0625	机场73	机场68	0.0625	252960
4	10	12:01:49	-68	-14	-8	30	17.5	DOWN	FALSE	FALSE	FALSE	FALSE	FALSE	1.0195	1.0078	1.0078	0.9727	0.9766	0.9688	0.9961	1.0039	1.0195	1.0039	-0.1758	-0.1758	-0.1758	-0.1758	-0.1758	-0.001	-0.001	-0.001	-0.001	-0.001	0.1758	0.1758	0.0052	0.0052	0.0052	0.0052	0.0063	21.1	21.1	2.1	356.5	32.375	DISENGD	OFF	34.0576	34.0576	34.1016	34.1016	-0.2695	1.59	2.04	-3.25	-2.7	-2.86	-2.67	0	机场73	机场68	0	252960
4	10	12:01:50	-68	-15	-8	30	17.75	DOWN	FALSE	FALSE	FALSE	FALSE	FALSE	0.9922	1	1.0313	0.9922	0.9883	1.0313	0.9922	1.0117	0.9922	0.9922	-0.1758	-0.1758	-0.1758	-0.1758	-0.1758	-0.001	-0.001	-0.001	-0.001	-0.001	0.1758	0.0879	0.0052	0.0052	0.0052	0.0052	0.0052	21.1	21.2	2.1	356.5	32.25	DISENGD	OFF	34.0576	34.0576	34.1016	34.1016	-0.2695	2.86	2.73	-3	-4.12	-3.7	-3.83	0.0625	机场73	机场68	0.0625	252960
4	10	12:01:51	-69	-6	-8	30	18	DOWN	FALSE	FALSE	FALSE	FALSE	FALSE	1.0234	1.0156	1	1.0195	1	1.0117	0.9844	0.9883	1.0117	1.0078	-0.1318	-0.1318	-0.1318	-0.1758	-0.1758	-0.001	-0.001	-0.001	-0.001	-0.001	0.0879	0.0879	0.0052	0.0052	0.0052	0.0052	0.0052	21.1	21.2	2.1	356.5	32	DISENGD	OFF	34.0576	34.0576	34.1016	34.1016	-0.2715	0.63	0.93	-0.87	-2.84	-3.17	-3.02	0	机场73	机场68	0	252960
4	10	12:01:52	-68	-3	-8	30	18	DOWN	FALSE	FALSE	FALSE	FALSE	FALSE	0.9961	1	1	1.0273	0.9961	0.9609	0.9961	0.9883	1.0234	1	-0.1318	-0.1758	-0.1758	-0.1758	-0.1758	-0.001	-0.001	-0.001	-0.001	-0.001	0.1758	0.1758	0.0052	0.0052	0.0052	0.0052	0.0052	21.1	21.1	2.1	356.5	31.875	DISENGD	OFF	34.0576	34.0576	34.1016	34.1016	-0.2715	2.12	2.16	-0.18	-2.18	-3.08	-2.33	0	机场73	机场68	0	252960
4	10	12:01:53	-68	-3	-8	30	18.25	DOWN	FALSE	FALSE	FALSE	FALSE	FALSE	1.0234	0.9766	0.9844	0.9883	1.0156	1	0.9648	1.0117	1.0273	0.9922	-0.1758	-0.1758	-0.1758	-0.1758	-0.1758	-0.001	-0.001	-0.001	-0.001	-0.001	0.0879	0.0879	0.0052	0.0052	0.0052	0.0052	0.0052	21.1	21.1	2.2	356.5	31.625	DISENGD	OFF	34.0576	34.0576	34.1016	34.1016	-0.1738	2.09	2.18	-1.44	-4.08	-4.04	-4.45	0.0625	机场73	机场68	0.0625	252960
4	10	12:01:54	-69	4	-8	30	18.5	DOWN	FALSE	FALSE	FALSE	FALSE	FALSE	1.0234	0.9961	1	1.0195	0.9883	1.0156	1.0156	0.9805	0.9961	1.0195	-0.1758	-0.1758	-0.1758	-0.1758	-0.1758	-0.001	-0.001	-0.001	-0.001	-0.001	0.0879	0.1758	0.0052	0.0052	0.0052	0.0052	0.0052	21.1	21.1	2.2	356.5	31.5	DISENGD	OFF	34.0576	34.0576	34.1016	34.1016	-0.1738	1.1	1.07	-2.51	-2.85	-3.1	-3.02	0.0625	机场73	机场68	0.0625	252960
4	10	12:01:55	-68	3	-8	30	18.75	DOWN	FALSE	FALSE	FALSE	FALSE	FALSE	0.9844	0.9961	0.9922	1.0313	1.0117	0.9883	0.9844	1.0273	0.9766	0.9609	-0.1758	-0.1758	-0.1758	-0.1758	-0.1758	-0.001	-0.001	-0.001	-0.001	-0.001	0.1758	0.0879	0.0052	0.0052	0.0063	0.0052	0.0052	21.1	21.1	2.2	356.5	31.25	DISENGD	OFF	34.0576	34.0576	34.1016	34.1016	-0.1523	2.88	2.86	0.39	-3.36	-3.48	-3.54	-0.125	机场73	机场68	-0.125	252960
4	10	12:01:56	-69	7	-8	30	18.75	DOWN	FALSE	FALSE	FALSE	FALSE	FALSE	1.0156	0.9844	1.0078	0.9922	1	0.9961	1.0078	1.0039	0.9727	1	-0.1758	-0.1758	-0.1758	-0.1758	-0.1758	-0.001	-0.001	-0.001	-0.001	-0.001	0.1758	0.0879	0.0052	0.0052	0.0052	0.0052	0.0052	21.1	21.1	2.2	356.5	31.125	DISENGD	OFF	34.0576	34.0576	34.1016	34.1016	-0.1523	0.74	0.54	4.96	-3.9	-3.11	-3.98	0.0625	机场73	机场68	0.0625	252960
4	10	12:01:57	-69	10	-8	30	19	DOWN	FALSE	FALSE	FALSE	FALSE	FALSE	1.0195	0.9805	1.0313	1.0117	0.9961	1.0117	0.9805	1.0078	1.0039	0.9844	-0.1758	-0.1758	-0.1758	-0.1758	-0.1758	-0.001	-0.001	-0.001	-0.001	-0.001	0.1758	0.1758	0.0052	0.0052	0.0063	0.0063	0.0052	21.1	21.1	2.2	356.5	31	DISENGD	OFF	34.0576	34.0576	34.1016	34.1016	0.418	2.84	3.04	-4.22	-3	-3.05	-3.07	0	机场73	机场68	0	252960
4	10	12:01:58	-68	3	-8	30	19.25	DOWN	FALSE	FALSE	FALSE	FALSE	FALSE	1.0078	0.9922	0.9961	1.0078	0.9844	0.9727	1.0234	1.0156	1.0156	1.0156	-0.1758	-0.1758	-0.1758	-0.1758	-0.1758	-0.001	-0.001	-0.001	-0.001	-0.001	0.1758	0.1758	0.0052	0.0063	0.0052	0.0052	0.0052	21.1	21.1	2.2	356.5	30.75	DISENGD	OFF	34.0576	34.0576	34.1016	34.1016	0.418	1.58	1.25	4.15	-2.78	-2.74	-2.83	-0.0625	机场73	机场68	-0.0625	252960
4	10	12:01:59	-69	2	-8	30	19.25	DOWN	FALSE	FALSE	FALSE	FALSE	FALSE	0.9961	1.0117	0.9883	0.9922	1.0469	0.9844	1	1	0.9648	0.9844	-0.1758	-0.1758	-0.1758	-0.1758	-0.1758	-0.001	-0.001	-0.001	-0.001	-0.001	0.1758	0.1758	0.0052	0.0052	0.0052	0.0052	0.0052	21.1	21.1	2.2	356.5	30.625	DISENGD	OFF	34.0576	34.0576	34.1016	34.1016	-0.2598	3.38	3.57	-2.79	-3.26	-3.58	-3.29	0	机场73	机场68	0	252960
4	10	12:02:00	-69	4	-8	30	19.5	DOWN	FALSE	FALSE	FALSE	FALSE	FALSE	0.9805	0.9805	0.9961	1	1.0156	0.9961	1.0391	0.9844	1.0273	1	-0.1758	-0.1758	-0.1758	-0.1758	-0.1758	-0.001	-0.001	-0.001	-0.001	-0.001	0.1758	0.1758	0.0052	0.0052	0.0052	0.0052	0.0052	21.1	21.2	2.2	356.5	30.375	DISENGD	OFF	34.0576	34.0576	34.1016	34.1016	-0.2598	0.53	0.42	-3.47	-3.29	-3.38	-2.87	0	机场73	机场68	0	252960
4	10	12:02:01	-69	5	-8	30	19.75	DOWN	FALSE	FALSE	FALSE	FALSE	FALSE	0.9844	0.9961	0.9766	1.0195	0.9922	1.0234	1.0117	1.0391	0.9688	0.9805	-0.1758	-0.1758	-0.1758	-0.1758	-0.1758	-0.001	-0.001	-0.001	-0.001	-0.001	0.1758	0.1758	0.0063	0.0052	0.0052	0.0052	0.0052	21.3	21.1	2.2	356.5	30.25	DISENGD	OFF	34.0576	34.0576	34.1016	34.1016	-0.2539	1.94	1.9	-1.87	-3.83	-3.96	-3.56	0	机场73	机场68	0	252960
4	10	12:02:02	-69	5	-8	30	20	DOWN	FALSE	FALSE	FALSE	FALSE	FALSE	1.0156	1.0156	1.0352	0.9648	0.9883	1	1.0391	0.9766	1	1.0313	-0.1758	-0.1758	-0.1758	-0.1758	-0.1758	-0.001	-0.001	-0.001	-0.001	-0.001	0.0879	0.0879	0.0052	0.0052	0.0063	0.0052	0.0052	21.1	21.1	2.2	356.5	30	DISENGD	OFF	34.0576	34.0576	34.1016	34.1016	-0.2539	2.53	2.38	6.37	-3.54	-3.55	-3.5	0.0625	机场73	机场68	0.0625	252960
4	10	12:02:03	-68	-4	-8	30	20	DOWN	FALSE	FALSE	FALSE	FALSE	FALSE	0.9531	0.9805	1.0313	1	1.0078	0.9922	1.0156	0.9922	1.0039	0.9805	-0.1758	-0.1758	-0.1758	-0.1758	-0.1758	-0.001	-0.001	-0.001	-0.001	-0.001	0.0879	0.0879	0.0063	0.0052	0.0052	0.0052	0.0052	21.2	21.2	2.1	356.5	29.875	DISENGD	OFF	34.0576	34.0576	34.1016	34.1016	-0.2617	2.07	2.07	1.21	-3.06	-3.23	-3.14	-0.0625	机场73	机场68	-0.0625	252960
4	10	12:02:04	-69	-4	-8	30	20.25	DOWN	FALSE	FALSE	FALSE	FALSE	FALSE	0.9805	1.0078	0.9766	1.0078	1	1.0156	1.0078	1.0039	1.0039	1.0352	-0.1758	-0.1758	-0.1758	-0.1758	-0.1758	-0.001	-0.001	-0.001	-0.001	-0.001	0.0879	0.0879	0.0052	0.0052	0.0052	0.0063	0.0052	21.1	21.2	2.1	356.5	29.75	DISENGD	OFF	34.0576	34.0576	34.1016	34.1016	-0.2617	1	1	-1.3	-3.81	-3.13	-3.47	0.0625	机场73	机场68	0.0625	252960
4	10	12:02:05	-69	-1	-8	30	20.5	DOWN	FALSE	FALSE	FALSE	FALSE	FALSE	1.0117	0.9883	0.9648	0.9883	0.9961	1.0117	1.0195	0.9727	1	1.0391	-0.1758	-0.1758	-0.1758	-0.1758	-0.1758	-0.001	-0.001	-0.001	-0.001	-0.001	0.1758	0.0879	0.0052	0.0063	0.0063	0.0063	0.0063	21.1	21.2	2.1	356.5	29.5	DISENGD	OFF	34.0576	34.0576	34.1016	34.1016	-0.2598	-0.62	-0.58	-4.92	-1.99	-2.81	-2.08	0.0625	机场73	机场68	0.0625	252960
4	10	12:02:06	-68	-5	-8	30	20.5	DOWN	FALSE	FALSE	FALSE	FALSE	FALSE	0.9922	0.9922	1.0195	0.9766	1	0.9688	1.0234	1.0313	1	0.9961	-0.1758	-0.1758	-0.1758	-0.1758	-0.1758	-0.001	-0.001	-0.001	-0.001	-0.001	0.2637	0.1758	0.0063	0.0052	0.0052	0.0063	0.0063	21.1	21.2	2.1	356.5	29.375	DISENGD	OFF	34.0576	34.0576	34.1016	34.1016	-0.2598	1.61	1.84	1.49	-3.17	-3.43	-2.66	0	机场73	机场68	0	252960
4	10	12:02:07	-69	-2	-8	30	20.75	DOWN	FALSE	FALSE	FALSE	FALSE	FALSE	0.9961	1	1.0156	1.0313	0.9648	0.9648	0.9844	1	1.0469	1.0195	-0.1758	-0.1758	-0.1758	-0.1758	-0.1758	-0.001	-0.001	-0.001	-0.001	-0.001	0.0879	0.2637	0.0063	0.0052	0.0052	0.0052	0.0063	21.1	21.2	2.1	356.5	29.25	DISENGD	OFF	34.0576	34.0576	34.1016	34.1016	-0.2578	1.9	1.9	1.52	-2.85	-2.91	-2.77	-0.125	机场73	机场68	-0.125	252960
4	10	12:02:08	-69	2	-8	30	21	DOWN	FALSE	FALSE	FALSE	FALSE	FALSE	0.9766	1	1.0117	1.0039	0.9805	0.9805	1.0117	1.0234	0.9805	0.9961	-0.1758	-0.1758	-0.1318	-0.1318	-0.1318	-0.001	-0.001	-0.001	-0.001	-0.001	0	0.0879	0.0063	0.0063	0.0063	0.0063	0.0063	21.1	21.2	2.1	356.5	29	DISENGD	OFF	34.0576	34.0576	34.1016	34.1016	-0.2578	1.79	1.64	0.27	-2.76	-3.96	-3.42	-0.125	机场73	机场68	-0.125	252960
4	10	12:02:09	-69	5	-8	30	21	DOWN	FALSE	FALSE	FALSE	FALSE	FALSE	1.0273	0.9883	0.9805	1	0.9922	1.0039	0.9844	0.9922	1	1.0117	-0.1318	-0.1318	-0.1318	-0.1318	-0.1318	-0.001	-0.001	-0.001	-0.001	-0.001	0	0.0879	0.0052	0.0052	0.0052	0.0063	0.0063	21.1	21.1	2.1	356.5	28.875	DISENGD	OFF	34.0576	34.0576	34.1016	34.1016	-0.2598	1.4	1.21	-2.44	-3.21	-2.98	-3.24	-0.0625	机场73	机场68	-0.0625	252960
4	10	12:02:10	-68	-2	-8	30	21.25	DOWN	FALSE	FALSE	FALSE	FALSE	FALSE	0.9766	1.0234	1.0078	0.9883	1	0.9844	1.0039	1.0078	1.0078	1.0078	-0.1318	-0.1318	-0.1318	-0.1318	-0.1318	-0.001	-0.001	-0.001	-0.001	-0.001	0.0879	0	0.0052	0.0063	0.0052	0.0063	0.0052	21.1	21.1	2.1	356.5	28.625	DISENGD	OFF	34.0576	34.0576	34.1016	34.1016	-0.2598	2.16	1.53	4.54	-3.38	-2.28	-3.09	-0.125	机场73	机场68	-0.125	252960
4	10	12:02:11	-68	-9	-8	30	21.5	DOWN	FALSE	FALSE	FALSE	FALSE	FALSE	0.9805	1	1.0039	1.0039	0.9766	1.0156	1.0234	0.9961	1	0.9844	-0.1318	-0.1318	-0.1318	-0.1318	-0.1318	-0.001	-0.001	-0.001	-0.001	-0.001	0.0879	0.0879	0.0063	0.0063	0.0063	0.0063	0.0063	21.1	21.1	2.1	356.5	28.5	DISENGD	OFF	34.0576	34.0576	34.1016	34.1016	-0.2598	2.95	2.81	3.22	-2.6	-3.16	-2.6	0	机场73	机场68	0	252960
4	10	12:02:12	-68	-12	-8	30	21.5	DOWN	FALSE	FALSE	FALSE	FALSE	FALSE	1	1.0039	1.0039	0.9961	1.0078	1	1.0156	1.0039	1.0039	0.9961	-0.1318	-0.1318	-0.1318	-0.1318	-0.1758	-0.001	-0.001	-0.001	-0.001	-0.001	0.0879	0.0879	0.0063	0.0063	0.0063	0.0052	0.0063	21.1	21.2	2.1	356.5	28.375	DISENGD	OFF	34.0576	34.0576	34.1016	34.1016	-0.2598	0.22	0.15	0.22	-1.78	-2.77	-2.06	-0.1875	机场73	机场68	-0.1875	252960
4	10	12:02:13	-68	-12	-8	30	21.75	DOWN	FALSE	FALSE	FALSE	FALSE	FALSE	0.9805	1.0039	1.0078	0.9805	0.9961	1.0078	0.9922	0.9688	1.0078	0.9727	-0.1758	-0.1758	-0.1758	-0.1758	-0.1758	-0.001	-0.001	-0.001	-0.001	-0.001	0.1758	0.0879	0.0063	0.0052	0.0063	0.0063	0.0052	21.1	21.2	2.1	356.5	28.125	DISENGD	OFF	34.0576	34.0576	34.1016	34.1016	-0.2598	2.53	2.42	3	-3.63	-4.13	-3.9	0	机场73	机场68	0	252960
4	10	12:02:14	-68	-9	-8	30	22	DOWN	FALSE	FALSE	FALSE	FALSE	FALSE	0.9883	1.0117	1.0156	1.0117	0.9609	0.9609	1.0039	1.0234	0.9844	1.0156	-0.1758	-0.2197	-0.1758	-0.1758	-0.1758	-0.001	-0.001	-0.001	-0.001	-0.001	0.1758	0.2637	0.0052	0.0063	0.0063	0.0063	0.0052	21.1	21.2	2	356.5	28	DISENGD	OFF	34.0576	34.0576	34.1016	34.1016	-0.2598	2.17	2.14	1.92	-4.56	-3.59	-4.32	0.0625	机场73	机场68	0.0625	252960
4	10	12:02:15	-68	-5	-8	30	22	DOWN	FALSE	FALSE	FALSE	FALSE	FALSE	0.9961	0.9727	0.9844	1.0078	1.0039	1.0117	1.0156	0.9844	1.0078	1	-0.1758	-0.1758	-0.1758	-0.1758	-0.1758	-0.001	-0.001	-0.001	-0.001	-0.001	0.0879	0	0.0052	0.0063	0.0052	0.0063	0.0052	21.1	21.2	1.9	356.5	27.875	DISENGD	OFF	34.0576	34.0576	34.1016	34.1016	-0.2617	1.35	1.27	1.7	-2.61	-2.6	-2.62	0	机场73	机场68	0	252960
4	10	12:02:16	-68	-2	-8	30	22.25	DOWN	FALSE	FALSE	FALSE	FALSE	FALSE	1.0039	1	1.0117	0.9727	0.9922	1.0234	0.9961	1.0195	0.9922	0.9688	-0.1758	-0.1758	-0.1758	-0.1758	-0.1758	-0.001	-0.001	-0.001	-0.001	-0.001	0	0	0.0063	0.0052	0.0052	0.0052	0.0052	21.1	21.2	1.9	356.1	27.625	DISENGD	OFF	34.0576	34.0576	34.1016	34.1016	-0.2617	3.4	3.29	0.54	-2.08	-3.09	-2.06	0.125	机场73	机场68	0.125	252960
4	10	12:02:17	-68	0	-8	30	22.5	DOWN	FALSE	FALSE	FALSE	FALSE	FALSE	0.9961	1.0039	1.0117	1.0117	0.9766	1.0078	0.9922	0.9922	0.9883	0.9844	-0.1758	-0.1318	-0.1318	-0.1318	-0.1318	-0.001	-0.001	-0.001	-0.001	-0.001	0	0	0.0063	0.0063	0.0052	0.0063	0.0052	21.1	21.2	1.9	356.1	27.5	DISENGD	OFF	34.0576	34.0576	34.1016	34.1016	-0.2617	1.73	1.62	1.46	-4.38	-4.54	-4.7	0	机场73	机场68	0	252960
4	10	12:02:18	-68	1	-8	30	22.75	DOWN	FALSE	FALSE	FALSE	FALSE	FALSE	1.0039	0.9805	0.9883	1.0195	0.9922	0.9805	0.9805	1	1	1.0078	-0.1318	-0.1318	-0.1318	-0.1318	-0.1318	-0.001	-0.001	-0.001	-0.001	-0.001	0	0	0.0052	0.0052	0.0063	0.0063	0.0052	21.1	21.2	1.9	356.1	27.25	DISENGD	OFF	34.0576	34.0576	34.1016	34.1016	-0.2617	1.47	0.65	-0.02	-4.87	-4.81	-4.79	-0.0625	机场73	机场68	-0.0625	252960
4	10	12:02:19	-68	1	-8	30	22.75	DOWN	FALSE	FALSE	FALSE	FALSE	FALSE	1.0117	1	0.9883	1	1.0117	0.9961	0.9648	1.0156	1.0156	1.0078	-0.1318	-0.1318	-0.1318	-0.1318	-0.1318	-0.001	-0.001	-0.001	-0.001	-0.001	0	0	0.0052	0.0052	0.0063	0.0063	0.0063	21.1	21.2	2	356.1	27.125	DISENGD	OFF	34.0576	34.0576	34.1016	34.1016	-0.2715	2.93	2.52	2.54	5.16	-1.19	-4.64	-0.0625	机场73	机场68	-0.0625	252960
4	10	12:02:20	-68	1	-8	30	23	DOWN	FALSE	FALSE	FALSE	FALSE	FALSE	1.0078	1.0039	0.9961	1.0156	1.0117	1.0078	0.9922	1.0156	0.9766	0.9688	-0.1758	-0.1758	-0.1758	-0.1758	-0.1758	-0.001	-0.001	-0.001	-0.001	-0.001	0.0879	0.0879	0.0063	0.0052	0.0063	0.0052	0.0063	21.1	21.2	2.1	356.1	27	DISENGD	OFF	34.0576	34.0576	34.1016	34.1016	-0.2715	1.84	1.72	0.65	-1.89	-3.29	-2.45	0.125	机场73	机场68	0.125	252960
4	10	12:02:21	-68	1	-8	30	23	DOWN	FALSE	FALSE	FALSE	FALSE	FALSE	1.0117	1	1.043	0.9688	0.9648	0.9531	0.9844	0.9805	1.0234	1.043	-0.2197	-0.2197	-0.2197	-0.2197	-0.2197	-0.001	-0.001	-0.001	-0.001	-0.0021	0.1758	0.2637	0.0052	0.0063	0.0052	0.0063	0.0063	21.1	21.2	2.3	356.5	26.875	DISENGD	OFF	34.0576	34.0576	34.1016	34.1016	0.4863	1.21	1.4	-1.43	-4.33	-4.54	-4.55	-0.125	机场73	机场68	-0.125	252960
4	10	12:02:22	-68	0	-8	30	23.25	DOWN	FALSE	FALSE	FALSE	FALSE	FALSE	1.0234	0.9883	1.0078	1.0039	0.9961	1.0039	0.9883	0.9766	0.9883	1.0039	-0.1758	-0.1758	-0.1758	-0.1758	-0.1758	-0.001	-0.001	-0.001	-0.001	-0.001	0.0879	0.0879	0.0052	0.0052	0.0063	0.0063	0.0063	21.1	21.2	2.2	356.5	26.625	DISENGD	OFF	34.0576	34.0576	34.1016	34.1016	0.4863	0.96	0.84	0.68	-4.21	-4.01	-4.46	-0.0625	机场73	机场68	-0.0625	252960
4	10	12:02:23	-68	0	-8	30	23.5	DOWN	FALSE	FALSE	FALSE	FALSE	FALSE	0.9844	1.0039	1.0156	1.0156	0.9727	1	1.0195	0.9805	1	0.9805	-0.1758	-0.1758	-0.1758	-0.1758	-0.1758	-0.001	-0.001	-0.001	-0.001	-0.001	0	0.0879	0.0052	0.0063	0.0063	0.0052	0.0052	21.1	21.1	2.3	356.5	26.5	DISENGD	OFF	34.0576	34.0576	34.1016	34.1016	-0.0547	0.16	-0.19	-0.82	-2.25	-1.1	-1.97	0.0625	机场73	机场68	0.0625	252960
4	10	12:02:24	-69	7	-8	30	23.75	DOWN	FALSE	FALSE	FALSE	FALSE	FALSE	0.9648	1.0273	0.9844	0.9922	1.0117	1.0195	0.9844	1	1.0039	1	-0.1758	-0.1758	-0.1758	-0.1758	-0.1758	-0.001	-0.001	-0.001	-0.001	-0.001	0	0	0.0063	0.0063	0.0052	0.0052	0.0052	21.1	21.2	2.4	356.5	26.25	DISENGD	OFF	34.0576	34.0576	34.1016	34.1016	-0.0547	0.75	0.56	1.04	-2.83	-4.25	-2.74	-0.0625	机场73	机场68	-0.0625	252960
4	10	12:02:25	-69	14	-8	30	23.75	DOWN	FALSE	FALSE	FALSE	FALSE	FALSE	0.9805	1.0234	1	1.0156	0.9531	1.0195	1.0039	1.0117	0.9883	1.0039	-0.1758	-0.1758	-0.1318	-0.1318	-0.1318	-0.001	-0.001	-0.001	-0.001	-0.001	-0.0879	0	0.0052	0.0052	0.0052	0.0063	0.0063	21.1	21.1	2.4	356.5	26.125	DISENGD	OFF	34.0576	34.0576	34.1016	34.1016	0.1914	1.09	0.84	0.56	-3.25	-3.22	-3.43	0	机场73	机场68	0	252960
4	10	12:02:26	-69	15	-8	30	23.75	DOWN	FALSE	FALSE	FALSE	FALSE	FALSE	1.0039	0.9961	0.9883	1	1	1.0078	0.9609	0.9727	1.0117	1.0273	-0.1318	-0.1318	-0.1318	-0.1318	-0.1318	-0.001	-0.001	-0.001	-0.001	-0.001	-0.0879	-0.0879	0.0063	0.0052	0.0063	0.0052	0.0052	21.1	21.2	2.3	356.8	26.125	DISENGD	OFF	34.0576	34.0576	34.1016	34.1016	0.1914	-0.55	-0.79	-2.4	-4.61	-4.97	-4.73	0.0625	机场73	机场68	0.0625	252960
