DATE: MONTH	DATE: DAY	GMT	ALTITUDE (1013)	Inertial Vertical Speed	RADIO ALT	COMPUTED AIR SPD	GROUNDSPEED	 GEAR SELECT DOWN	WOW INDICATE INAIR	WOW INDICATE INAIR	WOW INDICATE INAIR	WOW INDICATE INAIR	WOW INDICATE INAIR	COG NORM ACCEL	COG NORM ACCEL	COG NORM ACCEL	COG NORM ACCEL	COG NORM ACCEL	COG NORM ACCEL	COG NORM ACCEL	COG NORM ACCEL	COG NORM ACCEL	COG NORM ACCEL	PITCH ATT	PITCH ATT	PITCH ATT	PITCH ATT	PITCH ATT	CAP CLM 1 POSN	CAP CLM 1 POSN	CAP CLM 1 POSN	CAP CLM 1 POSN	CAP CLM 1 POSN	ROLL ATT	ROLL ATT	CAP WHL 1 POSN	CAP WHL 1 POSN	CAP WHL 1 POSN	CAP WHL 1 POSN	CAP WHL 1 POSN	N1 SELTED-L	N1 SELTED-R	MAGNETIC HEADING	WIND DIR(ADIRU)	WIND SPD(ADIRU)	A/T ENGAGED	ANY A/P ENGAGED	TRA-L	TRA-L	TRA-R	TRA-R	RUDD POSN	GLIDESLOPE DEV Dots (C)	GLIDESLOPE DEV Dots (L)	GLIDESLOPE DEV Dots (R)	LOCALIZER DEV Dots (C)	LOCALIZER DEV Dots (L)	LOCALIZER DEV Dots (R)	PITCH ATT RATE	DEPARTURE AIRPORT	DESTINATION AIRPORT	PITCH ATT RATE	FMF GROSS WEIGHT
DATECLKMON 	DATECLKDAY 	GMT	ALT 	ZIVV 	GPRA 	CAS 	GNDSPEED 	LGDN	WOWINAIR 	WOWINAIR 	WOWINAIR 	WOWINAIR 	WOWINAIR 	CGBRMACL 	CGBRMACL 	CGBRMACL 	CGBRMACL 	CGBRMACL 	CGBRMACL 	CGBRMACL 	CGBRMACL 	CGBRMACL 	CGBRMACL 	PITCH 	PITCH 	PITCH 	PITCH 	PITCH 	CCOL1POS 	CCOL1POS 	CCOL1POS 	CCOL1POS 	CCOL1POS 	ROLL 	ROLL 	CWHL1POS 	CWHL1POS 	CWHL1POS 	CWHL1POS 	CWHL1POS 	N1.L 	N1.R 	MAGHEADNG 	WINDIRCTRU 	WINDSPEED 	TMATENGD 	APENG 	TRA.L 	TRA.L 	TRA.R 	TRA.R 	RUDPOSN 	GSDEVC	GSDEVL	GSDEVR	LOCDEVC	LOCDEVL	LOCDEVR	PTCHATTRAT 	DEPRTARPT 	DESTARPT 	PTCHATTRAT 	FMFGROSSWT 
months	days	HHMMSS	FT	FT	"FT"" "	KNTS	KNTS	DOWN	TRUE	TRUE	TRUE	TRUE	TRUE	GEES	GEES	GEES	GEES	GEES	GEES	GEES	GEES	GEES	GEES	DEGS	DEGS	DEGS	DEGS	DEGS	IN LVDT	IN LVDT	IN LVDT	IN LVDT	IN LVDT	DEGS	DEGS	IN LVDT	IN LVDT	IN LVDT	IN LVDT	IN LVDT	 	 	DEGS	DEG	KNTS	ENGAGED	ON	DEG	DEG	DEG	DEG	IN	DOT	DOT	DOT	DOT	DOT	DOT	DEG/SEC	 	 	DEG/SEC	KGS
4	8	10:34:26	59	2	-8	30	12.5	DOWN	FALSE	FALSE	FALSE	FALSE	FALSE	1.0195	0.9844	1.0039	0.9883	1.0313	0.9961	1.0078	0.9922	0.9961	0.9844	-0.2197	-0.2197	-0.2197	-0.2197	-0.2197	-0.001	-0.001	-0.001	-0.001	-0.001	0.0879	0.0879	0.0115	0.0115	0.0115	0.0115	0.0115	21.3	21.4	15.8	13.7	37.375	DISENGD	OFF	33.9697	33.9697	34.1895	34.1895	-0.2617	-4.94	-5.39	-0.79	-1.31	-4.15	-2.07	0.0625	机场5	机场68	0.0625	273280
4	8	10:34:27	59	1	-8	30	12.75	DOWN	FALSE	FALSE	FALSE	FALSE	FALSE	1.0273	0.9648	0.9844	0.9727	1.0195	0.9805	0.9766	0.9961	1.0234	1.0078	-0.2197	-0.2197	-0.2197	-0.2197	-0.2197	-0.001	-0.001	-0.001	-0.001	-0.001	0.0879	0.0879	0.0115	0.0115	0.0115	0.0115	0.0115	21.3	21.3	15.7	13.4	37.125	DISENGD	OFF	33.9697	34.0137	34.1895	34.1895	-0.2637	-2.5	-2.28	-1.44	-2.2	-4.23	-3.56	-0.125	机场5	机场68	-0.125	273280
4	8	10:34:28	59	0	-8	30	13	DOWN	FALSE	FALSE	FALSE	FALSE	FALSE	1	0.9961	1.0078	1.0078	0.9688	0.9844	0.9766	1.0195	1.0156	1.0234	-0.2197	-0.2197	-0.2197	-0.2197	-0.2197	-0.001	-0.001	-0.001	-0.001	-0.001	0.0879	0.0879	0.0115	0.0115	0.0115	0.0115	0.0115	21.3	21.4	15.6	13.4	37	DISENGD	OFF	34.0137	34.0137	34.1895	34.1895	-0.2637	-0.52	-0.17	-2.34	-4.26	-4.49	-4.38	0	机场5	机场68	0	273280
4	8	10:34:29	59	-1	-8	30	13	DOWN	FALSE	FALSE	FALSE	FALSE	FALSE	1.0273	0.9844	1.0078	0.9922	1.0039	0.9961	0.9883	1.0156	1	0.9883	-0.2197	-0.2197	-0.2197	-0.2197	-0.2197	-0.001	-0.001	-0.001	-0.001	-0.001	0.0879	0.0879	0.0115	0.0115	0.0115	0.0115	0.0115	21.3	21.4	15.6	13	36.875	DISENGD	OFF	34.0137	34.0137	34.1895	34.1895	-0.2656	-0.01	-0.43	-3	-4.78	-4.58	-4.78	0	机场5	机场68	0	273280
4	8	10:34:30	60	-8	-8	30	13.25	DOWN	FALSE	FALSE	FALSE	FALSE	FALSE	1	1	1.0039	0.9883	1.0117	0.9922	0.9688	0.9922	1.0156	1.0039	-0.2197	-0.2197	-0.2197	-0.2197	-0.2197	-0.001	-0.001	-0.001	-0.001	-0.001	0.0879	0.0879	0.0115	0.0115	0.0115	0.0115	0.0115	21.3	21.4	15.6	13	36.75	DISENGD	OFF	34.0137	34.0137	34.1895	34.1895	-0.2656	-1.21	-1.29	-2.7	-3.77	-4.47	-4.17	-0.0625	机场5	机场68	-0.0625	273280
4	8	10:34:31	59	-7	-8	30	13.25	DOWN	FALSE	FALSE	FALSE	FALSE	FALSE	0.9922	1.0313	0.9922	0.9844	0.9883	1.0234	0.9961	0.9961	1.0039	0.9883	-0.2197	-0.2197	-0.2197	-0.2197	-0.2197	-0.001	-0.001	-0.001	-0.001	-0.001	0.0879	0.0879	0.0115	0.0115	0.0115	0.0115	0.0115	21.3	21.4	15.6	13	36.625	DISENGD	OFF	34.0137	34.0137	34.1895	34.1895	-0.2695	-1.97	-1.92	-0.62	-2.83	-2.73	-3.86	-0.0625	机场5	机场68	-0.0625	273280
4	8	10:34:32	59	-2	-8	30	13.25	DOWN	FALSE	FALSE	FALSE	FALSE	FALSE	1.043	1.0156	0.9766	0.9688	1.0313	1.0313	1.0039	0.9805	1.0039	0.9805	-0.2197	-0.2197	-0.2197	-0.2197	-0.2197	-0.001	-0.001	-0.001	-0.001	-0.001	0.0879	0.0879	0.0115	0.0115	0.0115	0.0115	0.0115	21.3	21.4	15.7	13	36.75	DISENGD	OFF	34.0137	34.0137	34.1895	34.1895	-0.2695	-2.15	-2.04	-1.65	-4.44	-4.47	-4.46	0.0625	机场5	机场68	0.0625	273280
4	8	10:34:33	60	-6	-8	30	13.25	DOWN	FALSE	FALSE	FALSE	FALSE	FALSE	0.9805	0.9727	0.9648	0.9883	1	1.043	0.9531	0.9922	1.0508	1.0078	-0.2197	-0.2197	-0.2637	-0.2197	-0.2197	-0.001	-0.001	-0.001	-0.001	-0.001	0.0879	0.0879	0.0115	0.0115	0.0115	0.0115	0.0115	21.3	21.4	15.7	13	36.625	DISENGD	OFF	34.0137	34.0137	34.1895	34.1895	-0.2656	-2.05	-1.55	-2.63	-4.51	-4.58	-4.55	-0.0625	机场5	机场68	-0.0625	273280
4	8	10:34:34	59	-2	-8	30	13.25	DOWN	FALSE	FALSE	FALSE	FALSE	FALSE	0.9844	1.0313	1	1.0234	0.9883	0.9922	1.0195	1.0156	0.9766	1.0078	-0.2197	-0.2197	-0.2197	-0.2197	-0.2197	-0.001	-0.001	-0.001	-0.001	-0.0021	0.0879	0	0.0115	0.0115	0.0115	0.0115	0.0115	21.3	21.4	15.8	13.4	36.625	DISENGD	OFF	34.0137	34.0137	34.1895	34.1895	-0.2656	-1.07	-0.42	-0.21	-4.45	-4.44	-4.49	-0.0625	机场5	机场68	-0.0625	273280
4	8	10:34:35	59	3	-8	30	13.5	DOWN	FALSE	FALSE	FALSE	FALSE	FALSE	0.9727	1.0039	1.0156	1.0078	1.0195	0.9727	1.0352	0.9844	0.9766	0.9844	-0.2197	-0.2197	-0.2197	-0.2197	-0.2197	-0.001	-0.001	-0.0021	-0.001	-0.001	0.0879	0.0879	0.0115	0.0115	0.0115	0.0115	0.0115	21.3	21.4	15.9	13.4	36.5	DISENGD	OFF	34.0137	34.0137	34.1895	34.1895	-0.2676	-2.24	-2.77	-2.4	-4.59	-4.56	-4.6	0.0625	机场5	机场68	0.0625	273280
4	8	10:34:36	60	-2	-8	30	13.75	DOWN	FALSE	FALSE	FALSE	FALSE	FALSE	0.9805	0.9961	0.9922	1	1	1.0156	1.0078	0.9648	1.0117	1.0117	-0.2197	-0.2197	-0.2197	-0.2197	-0.2197	-0.001	-0.001	-0.001	-0.001	-0.001	0.0879	0	0.0115	0.0115	0.0115	0.0115	0.0115	21.3	21.4	15.9	13.4	36.25	DISENGD	OFF	34.0137	34.0137	34.1895	34.1895	-0.2676	-1.3	-0.42	-1.58	-4.78	-4.66	-4.86	-0.0625	机场5	机场68	-0.0625	273280
4	8	10:34:37	59	0	-8	30	13.75	DOWN	FALSE	FALSE	FALSE	FALSE	FALSE	0.9883	0.9922	1.0039	1.0391	0.9688	0.9922	0.9883	1.0039	1	1.0156	-0.2197	-0.2197	-0.2197	-0.2197	-0.2197	-0.001	-0.001	-0.001	-0.001	-0.001	0.0879	0.0879	0.0115	0.0115	0.0115	0.0115	0.0115	21.3	21.4	16	13.4	36.125	DISENGD	OFF	34.0137	34.0137	34.1895	34.1895	-0.2695	-0.84	-2.19	-3.33	-4.22	-4.41	-4.26	0.125	机场5	机场68	0.125	273280
4	8	10:34:38	59	4	-8	30	14	DOWN	FALSE	FALSE	FALSE	FALSE	FALSE	1.0117	1.0078	1.0156	0.9805	0.9922	1.0156	0.9883	1.0234	0.9922	0.9727	-0.2197	-0.2197	-0.2197	-0.2197	-0.2197	-0.001	-0.001	-0.001	-0.001	-0.001	0.0879	0.0879	0.0115	0.0115	0.0115	0.0115	0.0115	21.3	21.3	16.1	13.4	36	DISENGD	OFF	34.0137	34.0137	34.1895	34.1895	-0.2695	-2.85	-2.97	-1.66	-4.78	-4.71	-4.83	0.0625	机场5	机场68	0.0625	273280
4	8	10:34:39	60	-2	-8	30	14	DOWN	FALSE	FALSE	FALSE	FALSE	FALSE	1.0117	1.0234	0.957	0.9961	1.0391	1.0117	0.9922	0.9648	0.9922	0.9961	-0.2197	-0.2197	-0.2197	-0.2197	-0.2197	-0.001	-0.0021	-0.001	-0.001	-0.001	0.0879	0.0879	0.0115	0.0115	0.0115	0.0115	0.0115	21.3	21.4	16.1	13.7	35.875	DISENGD	OFF	34.0137	34.0137	34.1895	34.1895	-0.2695	-1.5	-0.37	-2.66	-4.5	-4.56	-4.47	-0.0625	机场5	机场68	-0.0625	273280
4	8	10:34:40	60	-8	-8	30	14.25	DOWN	FALSE	FALSE	FALSE	FALSE	FALSE	0.9961	1.0156	0.9961	1.0078	1.0117	0.9805	0.9844	0.9766	1.0039	1.0273	-0.2197	-0.2197	-0.2197	-0.2197	-0.2197	-0.001	-0.001	-0.001	-0.001	-0.001	0.0879	0.0879	0.0115	0.0115	0.0115	0.0115	0.0115	21.3	21.4	16.1	13.7	35.75	DISENGD	OFF	34.0137	34.0137	34.1895	34.1895	-0.2695	-2.28	-1.87	-2.05	-4.66	-4.53	-4.68	-0.0625	机场5	机场68	-0.0625	273280
4	8	10:34:41	59	-3	-8	30	14.5	DOWN	FALSE	FALSE	FALSE	FALSE	FALSE	0.9883	1.0039	1.0156	1.0039	0.9961	0.9922	0.9922	0.9805	1.0078	0.9961	-0.2197	-0.2197	-0.2197	-0.2197	-0.2197	-0.001	-0.001	-0.001	-0.001	-0.001	0.0879	0.0879	0.0115	0.0115	0.0115	0.0115	0.0115	21.3	21.4	16.1	13.7	35.5	DISENGD	OFF	34.0137	34.0137	34.1895	34.1895	-0.2695	-1.44	0.36	-3.04	-4.56	-4.58	-4.6	0	机场5	机场68	0	273280
4	8	10:34:42	60	-4	-8	30	14.5	DOWN	FALSE	FALSE	FALSE	FALSE	FALSE	0.9805	0.9766	1.0313	0.9766	0.9883	0.9883	1.0195	0.9727	1.0195	0.9961	-0.2197	-0.2197	-0.2197	-0.2197	-0.2197	-0.0021	-0.001	-0.001	-0.001	-0.001	0.0879	0.0879	0.0115	0.0115	0.0115	0.0115	0.0115	21.3	21.4	16.2	13.7	35.375	DISENGD	OFF	34.0137	34.0137	34.1895	34.1895	-0.2695	-2.71	-1.61	-2	-4.36	-4.42	-4.4	0	机场5	机场68	0	273280
4	8	10:34:43	60	-6	-8	30	14.75	DOWN	FALSE	FALSE	FALSE	FALSE	FALSE	1	1.0156	0.9961	0.9883	0.9961	1.0156	0.9922	0.9805	1.0156	0.9883	-0.2197	-0.2637	-0.2637	-0.2637	-0.2637	-0.001	-0.001	-0.001	-0.001	-0.001	0.0879	0.0879	0.0115	0.0115	0.0115	0.0115	0.0115	21.3	21.4	16.2	13.7	35.25	DISENGD	OFF	34.0137	34.0137	34.1895	34.1895	-0.2695	-3.25	-3.34	1.17	-4.81	-4.65	-4.77	-0.125	机场5	机场68	-0.125	273280
4	8	10:34:44	60	-7	-8	30	14.75	DOWN	FALSE	FALSE	FALSE	FALSE	FALSE	0.9922	1.0273	0.9883	1.0117	1.0195	1.0273	0.9961	0.9883	0.9648	0.9648	-0.2637	-0.2637	-0.2637	-0.2637	-0.2637	-0.001	-0.001	-0.001	-0.001	-0.001	0.0879	0.0879	0.0115	0.0115	0.0115	0.0115	0.0115	21.3	21.4	16.2	13.7	35.125	DISENGD	OFF	34.0137	34.0137	34.1895	34.1895	-0.2695	-2.68	-2.7	-3.07	-4.59	-4.52	-4.65	0	机场5	机场68	0	273280
4	8	10:34:45	60	-6	-8	30	15	DOWN	FALSE	FALSE	FALSE	FALSE	FALSE	0.9766	1	0.9961	0.9883	1.0234	1.0078	1.0352	0.957	1.0078	0.9805	-0.2637	-0.2637	-0.2637	-0.2637	-0.3076	-0.001	-0.001	-0.001	-0.001	-0.001	0.0879	0.0879	0.0115	0.0115	0.0115	0.0115	0.0115	21.3	21.4	16.2	13.7	35	DISENGD	OFF	34.0137	34.0137	34.1895	34.1895	-0.2695	-3.35	-2.08	-2.57	-4.45	-4.45	-4.46	-0.0625	机场5	机场68	-0.0625	273280
4	8	10:34:46	60	-4	-8	30	15	DOWN	FALSE	FALSE	FALSE	FALSE	FALSE	0.9922	0.9688	0.9844	0.9766	1	1.0039	1	1.0039	1.0234	1.0234	-0.3076	-0.3076	-0.3076	-0.3516	-0.3516	-0.001	-0.001	-0.001	-0.001	-0.001	0.0879	0.0879	0.0115	0.0115	0.0115	0.0115	0.0115	21.3	21.4	16.3	13.7	34.875	DISENGD	OFF	34.0137	34.0137	34.1895	34.1895	-0.2695	-1.06	-0.63	-1.87	-4.45	-4.42	-4.46	-0.0625	机场5	机场68	-0.0625	273280
4	8	10:34:47	60	-2	-8	30	15.25	DOWN	FALSE	FALSE	FALSE	FALSE	FALSE	0.9805	0.9961	0.9766	0.9961	1.0508	1.0273	1.0039	0.9609	0.9805	0.9844	-0.3516	-0.3076	-0.3076	-0.2637	-0.2637	-0.001	-0.001	-0.001	-0.001	-0.001	0.0879	0.0879	0.0115	0.0115	0.0115	0.0115	0.0115	21.3	21.4	16.3	13.7	34.75	DISENGD	OFF	34.0137	33.9697	34.1895	34.1895	-0.2637	-2.27	-1.93	-2.85	-4.68	-4.56	-4.7	-0.0625	机场5	机场68	-0.0625	273280
4	8	10:34:48	60	-1	-8	30	15.5	DOWN	FALSE	FALSE	FALSE	FALSE	FALSE	0.9883	1.0078	1.0078	1.0117	1	0.957	1.0547	1.0195	0.9688	1.0117	-0.2197	-0.2197	-0.2197	-0.2197	-0.2197	-0.001	-0.001	-0.001	-0.001	-0.001	0.0879	0.0879	0.0115	0.0115	0.0115	0.0115	0.0115	21.3	21.4	16.3	13.7	34.5	DISENGD	OFF	33.9697	33.9697	34.1895	34.1895	-0.2637	-1.16	-1.45	-1.93	-4.42	-4.46	-4.51	0	机场5	机场68	0	273280
4	8	10:34:49	60	0	-8	30	15.5	DOWN	FALSE	FALSE	FALSE	FALSE	FALSE	1.0313	0.9805	1.0078	0.9844	1.0234	0.9727	1.0273	0.9922	0.957	1.0078	-0.2197	-0.2197	-0.2197	-0.2197	-0.2197	-0.001	-0.001	-0.001	-0.001	-0.001	0.1758	0.1758	0.0115	0.0115	0.0115	0.0115	0.0115	21.3	21.4	16.2	13.7	34.375	DISENGD	OFF	33.9697	33.9697	34.1895	34.1895	-0.2637	0.64	0.71	-0.12	-4.28	-4.42	-4.31	0	机场5	机场68	0	273280
4	8	10:34:50	60	1	-8	30	15.75	DOWN	FALSE	FALSE	FALSE	FALSE	FALSE	1.0195	0.9688	1.0039	0.9883	0.9766	0.9922	0.9922	0.9883	1.0313	0.9844	-0.2197	-0.2197	-0.2197	-0.2197	-0.2197	-0.001	-0.001	-0.001	-0.001	-0.001	0.0879	0.1758	0.0115	0.0115	0.0115	0.0115	0.0104	21.3	21.4	16.1	13.7	34.25	DISENGD	OFF	33.9697	33.9697	34.1895	34.1895	-0.2637	-3.96	-2.77	-1.62	-4.63	-4.54	-4.61	0.0625	机场5	机场68	0.0625	273280
4	8	10:34:51	60	1	-8	30	16	DOWN	FALSE	FALSE	FALSE	FALSE	FALSE	1	0.9688	1.0195	0.9961	0.9961	0.9688	0.9844	1.0078	1.0391	1.0039	-0.2197	-0.2197	-0.2197	-0.2197	-0.2197	-0.001	-0.0021	-0.001	-0.001	-0.001	0.0879	0.0879	0.0115	0.0115	0.0115	0.0115	0.0115	21.3	21.4	16	13.7	34	DISENGD	OFF	33.9697	33.9697	34.1895	34.1895	-0.2637	-1.08	-0.68	-1.97	-4.45	-4.45	-4.49	0.0625	机场5	机场68	0.0625	273280
4	8	10:34:52	60	1	-8	30	16	DOWN	FALSE	FALSE	FALSE	FALSE	FALSE	0.9844	1.0156	1.0156	0.9922	0.9766	1.0078	1.0117	1	1.0078	0.9844	-0.2197	-0.2197	-0.2197	-0.2197	-0.2197	-0.001	-0.001	-0.001	-0.001	-0.001	0.0879	0.0879	0.0115	0.0115	0.0115	0.0115	0.0115	21.3	21.4	15.9	13.4	33.875	DISENGD	OFF	33.9697	33.9697	34.1895	34.1895	-0.2637	-2.46	-2.89	-2.31	-4.61	-4.6	-4.61	-0.0625	机场5	机场68	-0.0625	273280
4	8	10:34:53	60	0	-8	30	16.25	DOWN	FALSE	FALSE	FALSE	FALSE	FALSE	1.0078	0.9961	0.9844	1.0078	0.9961	1.0078	0.9883	0.9883	0.9961	1.0156	-0.2197	-0.2197	-0.2197	-0.2197	-0.2197	-0.001	-0.001	-0.001	-0.001	-0.001	0.0879	0.0879	0.0115	0.0115	0.0115	0.0115	0.0115	21.3	21.4	15.8	13.4	33.75	DISENGD	OFF	33.9697	33.9697	34.1895	34.1895	-0.2637	-2.03	-2.04	-1.73	-3.51	-4.25	-3.59	-0.125	机场5	机场68	-0.125	273280
4	8	10:34:54	60	0	-8	30	16.25	DOWN	FALSE	FALSE	FALSE	FALSE	FALSE	1.0078	0.9922	0.9766	1	1.0273	1.0195	0.9883	0.9961	1.0078	0.9844	-0.2197	-0.2197	-0.2197	-0.2197	-0.2197	-0.001	-0.001	-0.001	-0.001	-0.001	0.0879	0.0879	0.0115	0.0115	0.0115	0.0115	0.0115	21.3	21.4	15.7	13.4	33.625	DISENGD	OFF	33.9697	33.9697	34.1895	34.1895	-0.2637	-4.24	-3.86	-3	-3.98	-4.42	-4.06	0	机场5	机场68	0	273280
4	8	10:34:55	60	0	-8	30	16.5	DOWN	FALSE	FALSE	FALSE	FALSE	FALSE	1.0117	0.9727	1.0156	0.9961	1.0156	0.9961	0.9805	1.0195	1	0.9883	-0.2197	-0.2197	-0.2197	-0.2197	-0.2197	-0.001	-0.001	-0.001	-0.001	-0.001	0.0879	0.0879	0.0115	0.0115	0.0115	0.0115	0.0115	21.3	21.4	15.6	13.4	33.5	DISENGD	OFF	33.9697	33.9697	34.1895	34.1895	-0.2695	-2.79	-3.02	-1.75	-3.92	-4.22	-4.32	-0.0625	机场5	机场68	-0.0625	273280
4	8	10:34:56	60	0	-8	30	16.5	DOWN	FALSE	FALSE	FALSE	FALSE	FALSE	0.9961	1	0.9922	0.9766	1.0195	0.9961	1.0234	0.9922	1.0117	0.9805	-0.2197	-0.2197	-0.2197	-0.2197	-0.2197	-0.001	-0.001	-0.001	-0.001	-0.001	0.0879	0.0879	0.0115	0.0115	0.0115	0.0115	0.0115	21.3	21.4	15.6	13	33.375	DISENGD	OFF	33.9697	33.9697	34.1895	34.1895	-0.2695	-3.69	-4.15	-2.25	-4.3	-4.41	-4.34	-0.0625	机场5	机场68	-0.0625	273280
4	8	10:34:57	60	0	-8	30	16.75	DOWN	FALSE	FALSE	FALSE	FALSE	FALSE	1.0117	0.9922	1.0039	1	1.0156	0.9805	1.0039	0.9922	0.9766	1.0234	-0.2197	-0.2197	-0.2637	-0.2637	-0.2197	-0.001	-0.001	-0.001	-0.001	-0.001	0.0879	0.0879	0.0115	0.0115	0.0115	0.0115	0.0115	21.3	21.4	15.6	13	33.25	DISENGD	OFF	33.9697	33.9697	34.1895	34.1895	-0.2695	-3.37	-3.12	-2.05	-4.34	-4.37	-4.41	-0.0625	机场5	机场68	-0.0625	273280
4	8	10:34:58	60	0	-8	30	16.75	DOWN	FALSE	FALSE	FALSE	FALSE	FALSE	1.0156	0.9961	1	0.9961	0.9609	1.0078	0.9727	1.0039	0.9961	0.9805	-0.2197	-0.2197	-0.2197	-0.2637	-0.2637	-0.001	-0.0021	-0.001	-0.001	-0.001	0.0879	0.0879	0.0115	0.0115	0.0115	0.0115	0.0115	21.3	21.4	15.6	13	33.125	DISENGD	OFF	33.9697	33.9697	34.1895	34.1895	-0.2695	-1.66	-1.96	-2.46	-4.34	-4.4	-4.39	-0.0625	机场5	机场68	-0.0625	273280
4	8	10:34:59	60	0	-8	30	17	DOWN	FALSE	FALSE	FALSE	FALSE	FALSE	0.9844	1	0.9844	1.0156	1	1	0.9883	1.0078	0.9883	0.9922	-0.2637	-0.2637	-0.2637	-0.2637	-0.2637	-0.001	-0.001	-0.001	-0.001	-0.001	0.0879	0.0879	0.0115	0.0115	0.0115	0.0115	0.0115	21.3	21.4	15.6	13	33	DISENGD	OFF	33.9697	33.9697	34.1895	34.1895	-0.2695	-2.12	-2.49	-1.78	-4.11	-4.33	-4.16	-0.125	机场5	机场68	-0.125	273280
4	8	10:35:00	60	0	-8	30	17.25	DOWN	FALSE	FALSE	FALSE	FALSE	FALSE	1.0078	1	0.9844	0.9844	1.0156	0.9805	1	1.0352	0.9883	1.0156	-0.2637	-0.2637	-0.2637	-0.2637	-0.2637	-0.001	-0.001	-0.001	-0.001	-0.001	0.0879	0.0879	0.0115	0.0115	0.0115	0.0115	0.0115	21.3	21.4	15.6	13	32.75	DISENGD	OFF	33.9697	34.0137	34.1895	34.1895	-0.2695	-2.08	-0.96	-1.03	-4.87	-4.73	-4.96	0	机场5	机场68	0	273280
4	8	10:35:01	60	0	-8	30	17.25	DOWN	FALSE	FALSE	FALSE	FALSE	FALSE	0.9609	0.9688	0.9609	1.0039	0.9844	0.9727	1.0156	1.0195	0.9922	1.0195	-0.2637	-0.3076	-0.3076	-0.3516	-0.3516	-0.001	-0.001	-0.001	-0.001	-0.001	0.0879	0.0879	0.0115	0.0115	0.0115	0.0115	0.0115	21.3	21.4	15.6	13	32.625	DISENGD	OFF	34.0137	34.0137	34.1895	34.1895	-0.2695	-2.39	-2.81	-0.58	-4.24	-4.55	-4.39	-0.125	机场5	机场68	-0.125	273120
4	8	10:35:02	60	0	-8	30	17	DOWN	FALSE	FALSE	FALSE	FALSE	FALSE	0.9961	0.9961	1.0352	0.9922	0.9922	0.9961	1.0547	1.0039	0.9766	1.0195	-0.3516	-0.3516	-0.3076	-0.2637	-0.2637	-0.001	-0.001	-0.001	-0.001	-0.001	0.0879	0.0879	0.0115	0.0115	0.0115	0.0115	0.0115	21.3	21.4	15.7	13	32.875	DISENGD	OFF	34.0137	34.0137	34.1895	34.1895	-0.2695	0.32	0.51	-2.82	-4.52	-4.49	-4.61	0.125	机场5	机场68	0.125	273120
4	8	10:35:03	60	0	-8	30	17	DOWN	FALSE	FALSE	FALSE	FALSE	FALSE	0.9805	1.0078	1.0117	0.9961	0.9961	0.9844	1.0156	0.9922	1.0195	1.0156	-0.2637	-0.2197	-0.2197	-0.2197	-0.2637	-0.0021	-0.001	-0.001	-0.001	-0.001	0.0879	0.0879	0.0115	0.0115	0.0115	0.0115	0.0115	21.3	21.4	15.8	13	33	DISENGD	OFF	34.0137	34.0137	34.1895	34.1895	-0.2695	-4.32	-4.27	-1.78	-4.77	-4.59	-4.75	0	机场5	机场68	0	273120
4	8	10:35:04	60	0	-8	30	17	DOWN	FALSE	FALSE	FALSE	FALSE	FALSE	0.9727	1	0.9844	1.0195	0.9805	0.9922	1.0039	0.9961	1	0.9883	-0.2637	-0.2637	-0.2637	-0.2637	-0.2637	-0.001	-0.001	-0.001	-0.0021	-0.001	0.0879	0	0.0115	0.0115	0.0115	0.0115	0.0115	21.4	21.4	15.9	13.4	32.875	DISENGD	OFF	34.0137	34.0137	34.1895	34.1895	-0.2695	-1.4	-2.05	-2.71	-4.22	-4.33	-4.26	0.0625	机场5	机场68	0.0625	273120
4	8	10:35:05	60	0	-8	30	17.25	DOWN	FALSE	FALSE	FALSE	FALSE	FALSE	1.0039	1	0.9961	1.0039	0.9844	1.0313	0.9844	1.0156	0.9883	1.0117	-0.2637	-0.2637	-0.2637	-0.2637	-0.2637	-0.001	-0.001	-0.001	-0.001	-0.001	0.0879	0.0879	0.0115	0.0115	0.0115	0.0115	0.0115	21.3	21.4	16.1	13.4	32.75	DISENGD	OFF	34.0137	34.0137	34.1895	34.1895	-0.2695	-1.46	-1.51	-2.75	-4.41	-4.54	-4.5	-0.0625	机场5	机场68	-0.0625	273120
4	8	10:35:06	60	0	-8	30	17.25	DOWN	FALSE	FALSE	FALSE	FALSE	FALSE	0.9961	1	0.9922	0.9883	1	1.0078	0.9883	0.9922	1.0156	1	-0.2637	-0.2637	-0.2197	-0.2637	-0.2197	-0.001	-0.001	-0.001	-0.001	-0.001	0.0879	0.0879	0.0115	0.0115	0.0115	0.0115	0.0115	21.3	21.4	16.1	13.4	32.625	DISENGD	OFF	34.0137	34.0137	34.1895	34.1895	-0.2695	-2.32	-1.54	-2.45	-4.52	-4.44	-4.64	0	机场5	机场68	0	273120
4	8	10:35:07	60	0	-8	30	17.5	DOWN	FALSE	FALSE	FALSE	FALSE	FALSE	1.0039	0.9961	1.0273	0.9727	0.9961	0.9844	1.0039	0.9766	1.0273	1	-0.2637	-0.2637	-0.2637	-0.2637	-0.2197	-0.001	-0.001	-0.001	-0.001	-0.001	0.0879	0.0879	0.0115	0.0115	0.0115	0.0115	0.0115	21.3	21.4	16.2	13.4	32.5	DISENGD	OFF	34.0137	34.0137	34.1895	34.1895	-0.2656	-3.05	-3.45	-1.85	-4.28	-4.26	-4.34	0.0625	机场5	机场68	0.0625	273120
4	8	10:35:08	60	0	-8	30	17.5	DOWN	FALSE	FALSE	FALSE	FALSE	FALSE	0.9883	0.9648	0.9961	0.9961	0.9922	1.0117	0.9648	0.9805	1.0195	1	-0.2637	-0.2637	-0.2637	-0.2637	-0.2637	-0.001	-0.001	-0.001	-0.001	-0.001	0.0879	0.0879	0.0115	0.0115	0.0115	0.0115	0.0115	21.3	21.4	16.2	13.7	32.375	DISENGD	OFF	34.0137	34.0137	34.1895	34.1895	-0.2656	-3.95	-3.9	-2.25	-4.29	-4.31	-4.46	0.0625	机场5	机场68	0.0625	273120
4	8	10:35:09	60	0	-8	30	17.75	DOWN	FALSE	FALSE	FALSE	FALSE	FALSE	1.0117	1	1.0195	0.9648	0.9844	1.0156	1.0117	1	1	1.0078	-0.2637	-0.2637	-0.2637	-0.2637	-0.2637	-0.001	-0.0021	-0.001	-0.001	-0.001	0.0879	0.0879	0.0115	0.0115	0.0115	0.0115	0.0115	21.3	21.4	16.3	13.7	32.125	DISENGD	OFF	34.0137	34.0137	34.1895	34.1895	-0.2656	-2.73	-2.88	-3.39	-4.47	-4.49	-4.56	0	机场5	机场68	0	273120
4	8	10:35:10	60	0	-8	30	18	DOWN	FALSE	FALSE	FALSE	FALSE	FALSE	0.9492	1.0078	0.9922	1.0195	0.9609	1.0195	0.9922	0.9531	1.0547	1.0156	-0.2637	-0.2637	-0.2637	-0.2637	-0.2637	-0.001	-0.001	-0.001	-0.001	-0.001	0.0879	0.0879	0.0115	0.0115	0.0115	0.0115	0.0115	21.3	21.4	16.3	13.7	32	DISENGD	OFF	34.0137	34.0137	34.1895	34.1895	-0.2656	-2.71	-2.42	-2.37	-4.81	-4.64	-4.87	-0.125	机场5	机场68	-0.125	273120
4	8	10:35:11	60	0	-8	30	18	DOWN	FALSE	FALSE	FALSE	FALSE	FALSE	0.9766	1.0313	0.9609	1.0039	1	1.0273	1.0273	0.9844	0.9766	1.0078	-0.2637	-0.2637	-0.2637	-0.2637	-0.2637	-0.001	-0.001	-0.001	-0.0021	-0.001	0.0879	0.0879	0.0115	0.0115	0.0115	0.0115	0.0115	21.3	21.4	16.2	13.7	31.875	DISENGD	OFF	34.0137	34.0137	34.1895	34.1895	-0.25	-2.33	-2.33	-2.14	-4.61	-4.69	-4.58	0	机场5	机场68	0	273120
4	8	10:35:12	60	0	-8	30	18.25	DOWN	FALSE	FALSE	FALSE	FALSE	FALSE	1.0078	1.0117	1.0273	0.9766	0.9492	1.0234	1.0039	1.0078	1.0039	1.0195	-0.2637	-0.2197	-0.2197	-0.2197	-0.2197	-0.001	-0.001	-0.001	-0.001	-0.001	0.0879	0.0879	0.0115	0.0115	0.0115	0.0115	0.0115	21.3	21.4	16.1	13.7	31.75	DISENGD	OFF	34.0137	34.0137	34.1895	34.1895	-0.25	-2.6	-3.74	-1.84	-4.07	-3.98	-4.36	0	机场5	机场68	0	273120
4	8	10:35:13	60	0	-8	30	18.25	DOWN	FALSE	FALSE	FALSE	FALSE	FALSE	1.0234	1.0195	0.9883	0.9453	1.0078	1.0195	0.9883	1	1.0078	0.9922	-0.2637	-0.2637	-0.2197	-0.2197	-0.2637	-0.001	-0.001	-0.001	-0.001	-0.001	0.0879	0.0879	0.0115	0.0115	0.0115	0.0115	0.0115	21.3	21.4	16	13.7	31.75	DISENGD	OFF	34.0137	34.0137	34.1895	34.1895	-0.2598	-2.65	-2.72	-3.3	-3.43	-3.48	-4.46	-0.0625	机场5	机场68	-0.0625	273120
4	8	10:35:14	60	0	-8	30	18	DOWN	FALSE	FALSE	FALSE	FALSE	FALSE	1.0039	0.9805	1.0117	0.9688	1.0117	1	0.9961	0.9922	1.0078	0.9961	-0.2637	-0.2637	-0.2637	-0.2637	-0.2637	-0.001	-0.001	-0.001	-0.001	-0.0021	0.0879	0.0879	0.0115	0.0115	0.0115	0.0115	0.0115	21.4	21.4	15.8	13.4	31.875	DISENGD	OFF	34.0137	34.0137	34.1455	34.1455	-0.2598	-3.5	-3.25	-2.7	-4.9	-4.47	-4.73	-0.125	机场5	机场68	-0.125	273120
4	8	10:35:15	60	0	-8	30	18	DOWN	FALSE	FALSE	FALSE	FALSE	FALSE	1	0.9961	0.9805	0.9688	1.0117	0.9922	1	0.9727	1.0313	1.0156	-0.2637	-0.2637	-0.2637	-0.2637	-0.2637	-0.001	-0.001	-0.001	-0.001	-0.001	0.0879	0.0879	0.0115	0.0115	0.0115	0.0104	0.0115	21.3	21.4	15.7	13.4	31.875	DISENGD	OFF	34.0137	34.0137	34.1455	34.1455	-0.2734	-2.54	-2.35	-3.3	-4.26	-4.38	-4.79	-0.0625	机场5	机场68	-0.0625	273120
4	8	10:35:16	60	0	-8	30	18.25	DOWN	FALSE	FALSE	FALSE	FALSE	FALSE	0.9883	1.0156	0.9961	0.9727	0.9883	1	1.0078	0.9961	1.0039	1.0195	-0.2637	-0.2637	-0.2637	-0.2637	-0.2637	-0.001	-0.001	-0.001	-0.001	-0.001	0.0879	0.0879	0.0115	0.0115	0.0115	0.0115	0.0115	21.3	21.4	15.6	13	31.75	DISENGD	OFF	34.0137	34.0137	34.1455	34.1455	-0.2734	-3.26	-3.6	-3.47	-2.7	-3.07	-2.72	-0.0625	机场5	机场68	-0.0625	273120
4	8	10:35:17	60	0	-8	30	18	DOWN	FALSE	FALSE	FALSE	FALSE	FALSE	1	0.9844	1	0.9961	0.9922	1.0039	0.9844	0.9922	1.0078	1.0117	-0.2637	-0.2637	-0.2637	-0.2637	-0.2637	-0.001	-0.0021	-0.001	-0.001	-0.001	0.0879	0.0879	0.0115	0.0115	0.0115	0.0115	0.0115	21.3	21.4	15.6	13	31.875	DISENGD	OFF	34.0137	34.0137	34.1455	34.1455	-0.2734	-4.18	-4.17	-3.69	-3.46	-3.43	-3.2	0	机场5	机场68	0	273120
4	8	10:35:18	60	0	-8	30	17.5	DOWN	FALSE	FALSE	FALSE	FALSE	FALSE	0.9922	0.9922	0.9922	1.0039	1.0078	0.9922	1.0078	0.9922	1.0039	1.0039	-0.2637	-0.2637	-0.2637	-0.2637	-0.2637	-0.001	-0.0021	-0.001	-0.001	-0.001	0.0879	0.0879	0.0115	0.0115	0.0115	0.0115	0.0115	21.3	21.4	15.6	13	32.375	DISENGD	OFF	34.0137	34.0137	34.1455	34.1455	-0.2734	-3.38	-3.61	-2.9	-2.6	-3.01	-2.54	0	机场5	机场68	0	273120
4	8	10:35:19	60	0	-8	30	16.75	DOWN	FALSE	FALSE	FALSE	FALSE	FALSE	0.9766	1.0195	1.0039	0.9883	0.9922	1.0078	0.9922	1.0039	0.9883	1.0156	-0.3076	-0.2637	-0.3076	-0.2637	-0.3076	-0.001	-0.001	-0.0021	-0.001	-0.001	0.0879	0.0879	0.0115	0.0115	0.0115	0.0115	0.0115	21.3	21.4	15.7	13	33.25	DISENGD	OFF	34.0137	34.0137	34.1455	34.1455	-0.2734	0.03	0.02	0.03	0.3	0.21	0.42	0	机场5	机场68	0	273120
4	8	10:35:20	60	0	-8	30	15.75	DOWN	FALSE	FALSE	FALSE	FALSE	FALSE	1.0117	0.9844	0.9805	1.0039	1.0156	0.9766	1.0117	0.9883	1	1.0117	-0.2637	-0.2637	-0.2637	-0.2637	-0.2637	-0.001	-0.001	-0.001	-0.001	-0.001	0.0879	0.0879	0.0115	0.0115	0.0115	0.0115	0.0115	21.3	21.4	15.8	13	34.25	DISENGD	OFF	34.0137	34.0137	34.1455	34.1455	-0.2734	0	0	0	-0.03	-0.01	-0.02	-0.1875	机场5	机场68	-0.1875	273120
4	8	10:35:21	60	0	-8	30	14.75	DOWN	FALSE	FALSE	FALSE	FALSE	FALSE	0.9961	1	1.0039	0.9844	0.9648	1.0117	0.9688	1.0195	1.0156	1.0117	-0.2637	-0.2637	-0.2637	-0.2637	-0.2637	-0.001	-0.001	-0.001	-0.001	-0.001	0.0879	0.0879	0.0115	0.0115	0.0115	0.0115	0.0115	21.3	21.4	15.9	13.4	35.125	DISENGD	OFF	33.9697	33.9697	34.1455	34.1455	-0.2695	0.01	0	0	-0.01	-0.02	-0.01	-0.0625	机场5	机场68	-0.0625	273120
4	8	10:35:22	60	0	-8	30	14.25	DOWN	FALSE	FALSE	FALSE	FALSE	FALSE	0.9883	1.0117	0.9961	1.0313	0.9922	0.9961	0.9922	1.0117	0.9805	0.9883	-0.2637	-0.2637	-0.2637	-0.2637	-0.2637	-0.001	-0.001	-0.001	-0.001	-0.001	0.0879	0.0879	0.0115	0.0115	0.0115	0.0115	0.0115	21.3	21.4	16	13.4	35.625	DISENGD	OFF	33.9697	33.9697	34.1455	34.1455	-0.2695	0	0	0	0	0	-0.01	-0.0625	机场5	机场68	-0.0625	273120
4	8	10:35:23	60	0	-8	30	14.5	DOWN	FALSE	FALSE	FALSE	FALSE	FALSE	0.9922	0.9961	0.9609	1.0313	1.0156	1.0039	0.9766	1	0.9961	0.9844	-0.2637	-0.2637	-0.2637	-0.2637	-0.2637	-0.001	-0.001	-0.001	-0.001	-0.001	0.0879	0.0879	0.0115	0.0115	0.0115	0.0115	0.0115	21.3	21.4	16.1	13.4	35.5	DISENGD	OFF	33.9697	33.9697	34.1455	34.1455	-0.2695	-1.24	-1.58	-4.12	-4.34	-4.76	-4.38	0	机场5	机场68	0	273120
4	8	10:35:24	60	0	-8	30	14.5	DOWN	FALSE	FALSE	FALSE	FALSE	FALSE	1.0195	0.9883	0.9922	1.0078	1	0.9688	0.9883	1.0039	0.9961	1.0273	-0.2637	-0.2637	-0.2637	-0.2637	-0.2637	-0.001	-0.001	-0.001	-0.001	-0.001	0.0879	0.0879	0.0115	0.0115	0.0115	0.0115	0.0115	21.3	21.4	16.1	13.4	35.375	DISENGD	OFF	33.9697	33.9697	34.1455	34.1455	-0.2695	-3.54	-3.75	-3.79	-4.19	-3.57	-4.51	-0.125	机场5	机场68	-0.125	273120
4	8	10:35:25	60	0	-8	30	14.75	DOWN	FALSE	FALSE	FALSE	FALSE	FALSE	1.0039	1.0039	1.0156	0.9961	0.9883	1	0.9844	1.0078	0.9922	1.0117	-0.2637	-0.2637	-0.2637	-0.2637	-0.2637	-0.001	-0.001	-0.001	-0.001	-0.001	0.0879	0.0879	0.0115	0.0115	0.0115	0.0115	0.0115	21.3	21.4	16.2	13.7	35.25	DISENGD	OFF	33.9697	33.9697	34.1455	34.1455	-0.2676	-3.61	-3.7	-3.96	-3.8	-5.04	-3.94	0.0625	机场5	机场68	0.0625	273120
4	8	10:35:26	60	0	-8	30	14.75	DOWN	FALSE	FALSE	FALSE	FALSE	FALSE	1.0117	0.9922	0.9961	0.9805	1.0156	1.0313	0.9766	0.9805	1.0117	0.9883	-0.2637	-0.2637	-0.2637	-0.2637	-0.2197	-0.001	-0.001	-0.001	-0.001	-0.001	0.0879	0.0879	0.0115	0.0115	0.0115	0.0115	0.0115	21.3	21.4	16.2	13.7	35.125	DISENGD	OFF	33.9697	33.9697	34.1455	34.1455	-0.2676	-2.21	-1.97	-3.29	-3.88	-4.17	-4.29	0	机场5	机场68	0	273120
4	8	10:35:27	60	0	-8	30	15	DOWN	FALSE	FALSE	FALSE	FALSE	FALSE	1.0117	0.9727	1	1.0078	0.9961	0.9805	0.9922	0.9922	1.0117	1.0039	-0.2197	-0.2197	-0.2197	-0.2197	-0.1758	-0.001	-0.001	-0.001	-0.001	-0.001	0.0879	0.0879	0.0115	0.0115	0.0115	0.0115	0.0115	21.3	21.4	16.2	13.7	35	DISENGD	OFF	33.9697	33.9697	34.1455	34.1455	-0.2695	-4	-4.31	-3.37	-3.18	-4.05	-3.57	0	机场5	机场68	0	273120
4	8	10:35:28	60	0	-8	30	15.25	DOWN	FALSE	FALSE	FALSE	FALSE	FALSE	0.9805	1.0195	0.9805	1.0156	0.9844	1.0039	0.9844	1.0156	1.0039	0.9922	-0.1758	-0.1758	-0.1758	-0.1758	-0.1758	-0.001	-0.001	-0.001	-0.001	-0.001	0.0879	0.0879	0.0115	0.0115	0.0115	0.0115	0.0115	21.3	21.4	16.2	13.7	34.875	DISENGD	OFF	33.9697	33.9697	34.1455	34.1455	-0.2695	-2.75	-2.46	-4.2	-4.12	-4.2	-4.31	0	机场5	机场68	0	273120
4	8	10:35:29	60	0	-8	30	15.25	DOWN	FALSE	FALSE	FALSE	FALSE	FALSE	1	1.0391	0.9883	1.0078	0.9883	1.0273	1.0313	1.0039	0.9883	1	-0.1318	-0.1318	-0.1318	-0.1318	-0.1318	-0.001	-0.001	-0.001	-0.001	-0.001	0.0879	0.0879	0.0115	0.0115	0.0115	0.0115	0.0115	21.3	21.4	16.1	13.7	34.625	DISENGD	OFF	33.9697	34.0137	34.1455	34.1895	-0.2637	-2.87	-3.23	-3.54	-2.64	-3.84	-3.09	0	机场5	机场68	0	273120
4	8	10:35:30	60	0	-8	30	15.5	DOWN	FALSE	FALSE	FALSE	FALSE	FALSE	1	1	1	1.0078	1.0078	0.9883	0.9844	1.0078	0.9961	0.9961	-0.0879	-0.0879	-0.0879	-0.0879	-0.0879	-0.001	-0.001	-0.001	-0.001	-0.001	0.1758	0.0879	0.0115	0.0115	0.0115	0.0104	0.0115	21.3	21.4	16.1	13.7	34.5	DISENGD	OFF	34.0137	34.0137	34.1895	34.1895	-0.2637	-4.83	-4.92	-3.26	-4.16	-4.39	-4.34	-0.0625	机场5	机场68	-0.0625	273120
4	8	10:35:31	60	0	-8	30	15.5	DOWN	FALSE	FALSE	FALSE	FALSE	FALSE	1.0039	0.9883	1	0.9922	0.9961	1.0039	0.9883	0.9883	1.0078	1	-0.0879	-0.0879	-0.0879	-0.0879	-0.0879	-0.001	-0.001	-0.001	-0.001	-0.001	0.0879	0.0879	0.0115	0.0115	0.0115	0.0115	0.0115	21.3	21.4	15.9	13.7	34.375	DISENGD	OFF	34.0137	34.0137	34.1895	34.1895	-0.2637	-3.83	-3.89	-3.89	-2.3	-2.7	-2.2	-0.0625	机场5	机场68	-0.0625	273120
4	8	10:35:32	61	-8	-8	30	15.75	DOWN	FALSE	FALSE	FALSE	FALSE	FALSE	0.9844	1	1.0273	0.9883	0.9531	0.9922	1.0039	1.0078	1.0352	1.0078	-0.0879	-0.1318	-0.1318	-0.1318	-0.1318	-0.001	-0.001	-0.001	-0.001	-0.001	0.1758	0.1758	0.0115	0.0115	0.0115	0.0115	0.0115	21.3	21.4	15.7	13.4	34.25	DISENGD	OFF	34.0137	34.0137	34.1895	34.1895	-0.2637	-2.94	-3.62	-4	-3.99	-4.22	-3.82	0.0625	机场5	机场68	0.0625	273120
4	8	10:35:33	60	-6	-8	30	15.75	DOWN	FALSE	FALSE	FALSE	FALSE	FALSE	0.9883	1.0234	1.0078	0.9805	0.9805	1.0234	1.0039	0.9648	1.0234	1.0039	-0.1318	-0.1318	-0.1318	-0.1318	-0.1758	-0.001	-0.001	-0.001	-0.001	-0.001	0.1758	0.1758	0.0115	0.0115	0.0115	0.0115	0.0115	21.3	21.4	15.6	13.4	34.25	DISENGD	OFF	33.9697	33.9697	34.1895	34.1895	-0.2695	-4.12	-3.83	-3.3	-4.06	-4.34	-4.22	-0.0625	机场5	机场68	-0.0625	273120
4	8	10:35:34	61	-9	-8	30	15.75	DOWN	FALSE	FALSE	FALSE	FALSE	FALSE	0.9805	0.9883	0.9844	1.0039	1	1.0195	1	0.9883	1.0234	1	-0.1758	-0.1758	-0.1758	-0.2197	-0.2197	-0.001	-0.001	-0.001	-0.001	-0.001	0.1758	0.1758	0.0115	0.0115	0.0115	0.0115	0.0115	21.3	21.3	15.6	13	34.125	DISENGD	OFF	33.9697	33.9697	34.1895	34.1895	-0.2695	-2.94	-2.52	-3.64	-2.45	-3.9	-2.63	-0.0625	机场5	机场68	-0.0625	273120
4	8	10:35:35	60	-4	-8	30	16	DOWN	FALSE	FALSE	FALSE	FALSE	FALSE	1.0078	1.0078	0.9805	1.0273	0.9961	1	0.9883	1.0195	0.9766	1.0195	-0.2197	-0.2637	-0.2637	-0.2637	-0.2637	-0.001	-0.0021	-0.001	-0.001	-0.001	0.1758	0.1758	0.0115	0.0115	0.0115	0.0115	0.0115	21.3	21.4	15.6	13	34	DISENGD	OFF	33.9697	33.9697	34.1895	34.1895	-0.2695	-2.88	-3.48	-4.1	-4.68	-4.63	-4.73	0	机场5	机场68	0	273120
4	8	10:35:36	61	-5	-8	30	16	DOWN	FALSE	FALSE	FALSE	FALSE	FALSE	0.9961	0.9922	0.9727	0.9844	0.9805	1.0078	1.0078	1.0039	0.9883	1	-0.3076	-0.3076	-0.3516	-0.3516	-0.3516	-0.001	-0.001	-0.001	-0.001	-0.001	0.2637	0.1758	0.0115	0.0115	0.0115	0.0115	0.0115	21.3	21.4	15.6	13	33.875	DISENGD	OFF	33.9697	33.9697	34.1895	34.1895	-0.2695	-3.81	-3.69	-4.15	-2.22	-3.48	-2.59	-0.0625	机场5	机场68	-0.0625	273120
4	8	10:35:37	61	-7	-8	30	16.25	DOWN	FALSE	FALSE	FALSE	FALSE	FALSE	1	1.0273	1.0039	1.0508	0.9648	0.9922	0.9531	1.0391	0.9805	1.0078	-0.3516	-0.3516	-0.3516	-0.3516	-0.3516	-0.001	-0.001	-0.001	-0.001	-0.001	0.0879	0.1758	0.0115	0.0115	0.0115	0.0115	0.0115	21.3	21.4	15.6	13	33.75	DISENGD	OFF	33.9697	33.9697	34.1895	34.1895	-0.2695	-4.22	-4.5	-4.06	-4.62	-4.72	-4.69	0.0625	机场5	机场68	0.0625	273120
4	8	10:35:38	60	0	-8	30	16.5	DOWN	FALSE	FALSE	FALSE	FALSE	FALSE	1	0.9805	0.9805	1	1.0117	1.0352	0.9922	1.0039	0.9922	0.9453	-0.3516	-0.3516	-0.3516	-0.3516	-0.3516	-0.001	-0.001	-0.001	-0.001	-0.001	0.0879	0.0879	0.0115	0.0115	0.0115	0.0115	0.0115	21.3	21.4	15.7	13	33.625	DISENGD	OFF	33.9697	33.9697	34.1895	34.1895	-0.2695	-3.38	-2.92	-4.49	-0.93	-3.18	-1.37	0	机场5	机场68	0	273120
4	8	10:35:39	61	-1	-8	30	16.5	DOWN	FALSE	FALSE	FALSE	FALSE	FALSE	0.9922	0.9844	0.9844	0.9922	1.0234	0.9922	1	1.0117	1.0195	1.0195	-0.3516	-0.3516	-0.3516	-0.3516	-0.3516	-0.001	-0.001	-0.001	-0.001	-0.001	0	0.0879	0.0115	0.0115	0.0115	0.0115	0.0115	21.3	21.4	15.8	13	33.5	DISENGD	OFF	33.9697	33.9697	34.1895	34.1895	-0.2656	-2.55	-2.75	-4.33	-4.48	-4.17	-4.28	0	机场5	机场68	0	273120
4	8	10:35:40	61	-3	-8	30	16.25	DOWN	FALSE	FALSE	FALSE	FALSE	FALSE	0.9883	1.0273	0.9922	1.0078	0.9805	0.9961	1	1	1.0078	1.043	-0.3516	-0.3076	-0.3076	-0.3076	-0.3076	-0.001	-0.001	-0.001	-0.001	-0.001	0.0879	0.0879	0.0115	0.0115	0.0115	0.0115	0.0115	21.3	21.4	15.9	13.4	33.75	DISENGD	OFF	33.9697	33.9697	34.1895	34.1895	-0.2656	-4.71	-4.83	-3.74	-2.36	-3.82	-2.69	-0.0625	机场5	机场68	-0.0625	273120
4	8	10:35:41	60	3	-8	30	16.25	DOWN	FALSE	FALSE	FALSE	FALSE	FALSE	0.9805	1.043	0.9805	0.9922	0.9883	1.043	0.9883	0.9883	1.0039	1.0078	-0.3076	-0.3076	-0.2637	-0.2637	-0.2637	-0.001	-0.001	-0.001	-0.001	-0.001	0.0879	0.0879	0.0115	0.0115	0.0115	0.0115	0.0115	21.3	21.4	16	13.4	33.75	DISENGD	OFF	33.9697	33.9697	34.1895	34.1895	-0.2656	-4.73	-4.59	-4.05	-3.12	-2.57	-3.3	0.0625	机场5	机场68	0.0625	273120
4	8	10:35:42	60	9	-8	30	16.5	DOWN	FALSE	FALSE	FALSE	FALSE	FALSE	1.0039	0.9805	0.9922	0.9883	1.0078	1.0117	0.9805	1.0078	0.9961	0.9844	-0.2637	-0.2637	-0.2637	-0.2637	-0.2197	-0.001	-0.001	-0.001	-0.001	-0.001	0.0879	0.0879	0.0115	0.0115	0.0115	0.0115	0.0115	21.3	21.4	16	13.4	33.5	DISENGD	OFF	33.9697	33.9697	34.1895	34.1895	-0.2656	-1.91	-1.87	-4.35	-4.01	-4.96	-4	0.0625	机场5	机场68	0.0625	273120
4	8	10:35:43	61	4	-8	30	16.5	DOWN	FALSE	FALSE	FALSE	FALSE	FALSE	0.9922	0.9961	1.0313	1.0039	0.957	1.0117	0.9883	1.0234	1.0039	0.9961	-0.2197	-0.2197	-0.2197	-0.2197	-0.2197	-0.001	-0.001	-0.001	-0.001	-0.001	0.0879	0.0879	0.0115	0.0115	0.0115	0.0115	0.0115	21.3	21.4	16.1	13.4	33.375	DISENGD	OFF	33.9697	33.9697	34.1895	34.1895	-0.2695	-3.15	-3.19	-4.55	-1.79	-3.2	-1.96	-0.0625	机场5	机场68	-0.0625	273120
4	8	10:35:44	60	4	-8	30	16.75	DOWN	FALSE	FALSE	FALSE	FALSE	FALSE	1.0195	1.0156	1	0.9922	0.9805	1.0156	1	1.0078	0.9922	0.9805	-0.2197	-0.2197	-0.2197	-0.2197	-0.2197	-0.001	-0.001	-0.001	-0.001	-0.001	0.0879	0.0879	0.0115	0.0115	0.0115	0.0115	0.0115	21.3	21.4	16.1	13.4	33.25	DISENGD	OFF	33.9697	33.9697	34.1895	34.1895	-0.2695	-5.39	-5.27	-3.93	-4.71	-4.51	-4.69	0.125	机场5	机场68	0.125	273120
4	8	10:35:45	60	6	-8	30	16.75	DOWN	FALSE	FALSE	FALSE	FALSE	FALSE	1.0195	0.9961	0.9922	0.9727	1	1.0117	0.9883	0.9883	0.9922	0.9922	-0.2197	-0.2197	-0.2197	-0.2197	-0.2197	-0.001	-0.001	-0.001	-0.001	-0.001	0.0879	0.0879	0.0115	0.0115	0.0115	0.0115	0.0115	21.3	21.4	16.2	13.4	33.125	DISENGD	OFF	33.9697	33.9697	34.1455	34.1455	-0.2695	-4.33	-4.24	-5.02	-3.89	-4.42	-3.65	0	机场5	机场68	0	273120
4	8	10:35:46	61	-1	-8	30	17	DOWN	FALSE	FALSE	FALSE	FALSE	FALSE	0.9844	1.0078	1	0.9922	0.9961	0.9805	0.9805	0.9805	1.0039	1.0391	-0.2197	-0.2197	-0.2197	-0.2197	-0.2197	-0.001	-0.001	-0.001	-0.001	-0.001	0.0879	0.0879	0.0115	0.0115	0.0115	0.0115	0.0115	21.3	21.4	16.2	13.4	33	DISENGD	OFF	33.9697	33.9258	34.1455	34.1455	-0.2695	-3.96	-4.08	-4.97	-1.96	-3.6	-2.34	-0.0625	机场5	机场68	-0.0625	273120
4	8	10:35:47	61	-8	-8	30	17.25	DOWN	FALSE	FALSE	FALSE	FALSE	FALSE	0.9961	1	1.0117	1.0156	0.9844	0.9727	0.9961	1.0039	1.0117	1.0234	-0.2197	-0.2637	-0.2197	-0.2197	-0.2197	-0.001	-0.001	-0.001	-0.001	-0.001	0.0879	0.0879	0.0115	0.0115	0.0115	0.0115	0.0115	21.3	21.4	16.3	13.7	32.75	DISENGD	OFF	33.9258	33.9258	34.1455	34.1455	-0.2637	-4.28	-3.93	-4.04	-3.18	-3.97	-3.33	0	机场5	机场68	0	273120
4	8	10:35:48	61	-11	-8	30	17.25	DOWN	FALSE	FALSE	FALSE	FALSE	FALSE	0.9961	1.0117	0.9727	0.9922	1.0313	0.9961	1.0195	0.9609	0.9922	0.9727	-0.2197	-0.2197	-0.2197	-0.2197	-0.2197	-0.001	-0.001	-0.001	-0.001	-0.001	0.0879	0.0879	0.0115	0.0115	0.0115	0.0115	0.0115	21.3	21.4	16.2	13.7	32.625	DISENGD	OFF	33.9258	33.9258	34.1455	34.1455	-0.2637	-4.11	-4.36	-4.68	-4.26	-5.1	-4.5	0	机场5	机场68	0	273120
4	8	10:35:49	61	-11	-8	30	17.5	DOWN	FALSE	FALSE	FALSE	FALSE	FALSE	0.9961	0.9688	0.9688	0.9961	1.0313	1.0117	0.9844	0.9727	0.9922	1.0352	-0.2197	-0.2197	-0.2197	-0.2197	-0.2197	-0.001	-0.001	-0.001	-0.001	-0.001	0.0879	0.0879	0.0115	0.0115	0.0115	0.0115	0.0115	21.3	21.4	16	13.7	32.5	DISENGD	OFF	33.9258	33.9258	34.1455	34.1455	-0.2695	-4.27	-4.26	-4.98	-2.26	-3.84	-2.39	-0.125	机场5	机场68	-0.125	273120
4	8	10:35:50	61	-8	-8	30	17.5	DOWN	FALSE	FALSE	FALSE	FALSE	FALSE	0.9609	0.9727	1.0195	0.9883	0.9766	0.9844	1.0039	1.0273	1.0273	1.0078	-0.2197	-0.2197	-0.2197	-0.2197	-0.2197	-0.001	-0.001	-0.001	-0.001	-0.0021	0.0879	0.0879	0.0115	0.0115	0.0115	0.0115	0.0115	21.3	21.4	15.8	13.4	32.375	DISENGD	OFF	33.9258	33.9258	34.1455	34.1455	-0.2695	-4.54	-4.42	-4.74	-4.69	-4.14	-4.78	0	机场5	机场68	0	273120
4	8	10:35:51	61	-5	-8	30	17.75	DOWN	FALSE	FALSE	FALSE	FALSE	FALSE	1.0469	1.0039	0.9688	0.9883	0.9961	1.0195	1.0117	1.0195	0.9844	1	-0.2197	-0.2197	-0.2197	-0.2197	-0.2197	-0.0021	-0.001	-0.001	-0.001	-0.001	0.0879	0.0879	0.0115	0.0115	0.0115	0.0115	0.0115	21.3	21.4	15.8	13	32.25	DISENGD	OFF	33.9258	33.9258	34.1455	34.1455	-0.2734	-2.8	-3.44	-5.04	-3.83	-4.61	-4.12	-0.125	机场5	机场68	-0.125	273120
4	8	10:35:52	61	-2	-8	30	17.75	DOWN	FALSE	FALSE	FALSE	FALSE	FALSE	1.0156	0.9844	0.9844	0.9805	1.0195	1.0078	0.9727	0.9961	1.0156	1	-0.2197	-0.2197	-0.2197	-0.2197	-0.2197	-0.001	-0.001	-0.001	-0.001	-0.001	0.0879	0.0879	0.0115	0.0115	0.0115	0.0115	0.0115	21.2	21.4	15.8	13	32.125	DISENGD	OFF	33.9258	33.9258	34.1455	34.1455	-0.2734	-4.62	-4.46	-4.71	-3.21	-4.32	-2.1	0	机场5	机场68	0	273120
4	8	10:35:53	61	0	-8	30	18	DOWN	FALSE	FALSE	FALSE	FALSE	FALSE	1.0039	0.9883	1.0117	0.9844	1.0234	0.9922	1.0156	1.0039	0.9844	0.9922	-0.2197	-0.2197	-0.2197	-0.2197	-0.2197	-0.001	-0.001	-0.001	-0.0021	-0.001	0.0879	0.0879	0.0115	0.0115	0.0115	0.0115	0.0115	21.3	21.4	15.9	13	32	DISENGD	OFF	33.9258	33.9258	34.1455	34.1455	-0.2734	-3.81	-3.8	-4.05	-3.18	-3.7	-4.39	-0.125	机场5	机场68	-0.125	273120
4	8	10:35:54	61	1	-8	30	18	DOWN	FALSE	FALSE	FALSE	FALSE	FALSE	0.9844	0.9961	1.0117	0.9922	0.9688	1	0.9805	1.0195	1.0117	1.0078	-0.2197	-0.2197	-0.2197	-0.2197	-0.2197	-0.001	-0.001	-0.001	-0.001	-0.001	0.0879	0.0879	0.0115	0.0115	0.0115	0.0115	0.0115	21.3	21.4	15.9	13.4	31.875	DISENGD	OFF	33.9258	33.9258	34.1895	34.1895	-0.2734	-2.15	-1.95	-4.13	-4.11	-4.28	-4.43	-0.125	机场5	机场68	-0.125	273120
4	8	10:35:55	61	1	-8	30	18.25	DOWN	FALSE	FALSE	FALSE	FALSE	FALSE	1.0078	0.9844	1.0078	1.0117	0.9961	0.9961	0.9844	1.0039	1.0117	0.9883	-0.2197	-0.2197	-0.2197	-0.2637	-0.2197	-0.001	-0.0021	-0.001	-0.001	-0.001	0.0879	0.0879	0.0115	0.0115	0.0115	0.0115	0.0115	21.3	21.4	16	13.4	31.625	DISENGD	OFF	33.9258	33.9258	34.1895	34.1895	-0.2695	-3.1	-3.36	-3.88	-4.78	5.16	-4.3	0	机场5	机场68	0	273120
4	8	10:35:56	61	1	-8	30	18.5	DOWN	FALSE	FALSE	FALSE	FALSE	FALSE	1.0586	1	1	1.0039	1.0273	0.9766	1.0195	1	0.9453	0.9766	-0.2197	-0.2197	-0.2197	-0.2637	-0.2197	-0.0021	-0.001	-0.001	-0.001	-0.001	0.0879	0.0879	0.0115	0.0115	0.0115	0.0115	0.0115	21.3	21.4	16.1	13.4	31.625	DISENGD	OFF	33.9258	33.9258	34.1895	34.1895	-0.2695	-3.04	-3.04	-3.52	-3.48	-4.46	-2.79	0.625	机场5	机场68	0.625	273120
4	8	10:35:57	60	8	-8	30	18.5	DOWN	FALSE	FALSE	FALSE	FALSE	FALSE	0.9883	1	0.9766	1.0039	0.9922	1.0039	0.957	1.0156	1.0273	0.9805	-0.2197	-0.2197	-0.2197	-0.2197	-0.2197	-0.001	-0.001	-0.001	-0.001	-0.001	0.1758	0.0879	0.0115	0.0115	0.0115	0.0115	0.0115	21.3	21.4	16.1	13.4	31.375	DISENGD	OFF	33.9258	33.9258	34.1895	34.1895	-0.2637	-1.36	-1.53	-3.19	-1.17	-2.77	-1.92	-0.0625	机场5	机场68	-0.0625	273120
4	8	10:35:58	61	6	-8	30	18.75	DOWN	FALSE	FALSE	FALSE	FALSE	FALSE	1.0195	1.0156	1.0117	0.9922	0.9805	0.9922	0.9961	1.0156	1.0039	1.0117	-0.2197	-0.2197	-0.2197	-0.2197	-0.2197	-0.001	-0.001	-0.001	-0.001	-0.001	0.0879	0.0879	0.0115	0.0115	0.0115	0.0115	0.0104	21.3	21.4	16.1	13.4	31.25	DISENGD	OFF	33.9258	33.9258	34.1895	34.1895	-0.2637	-3.06	-3.12	-4.02	-2.62	-1.63	-3.67	0	机场5	机场68	0	273120
4	8	10:35:59	60	9	-8	30	18.75	DOWN	FALSE	FALSE	FALSE	FALSE	FALSE	0.9961	0.9883	0.9922	1	1.0078	0.9805	1	0.9805	1.0117	0.9883	-0.2197	-0.2197	-0.2197	-0.2197	-0.2197	-0.001	-0.001	-0.001	-0.001	-0.001	0.0879	0.0879	0.0115	0.0115	0.0115	0.0115	0.0115	21.3	21.4	16	13.4	31.125	DISENGD	OFF	33.9258	33.9258	34.1895	34.1895	-0.2656	-4.46	-4.64	-4.38	-4.48	-4.56	-4.93	0	机场5	机场68	0	273120
4	8	10:36:00	61	4	-8	30	19	DOWN	FALSE	FALSE	FALSE	FALSE	FALSE	1.0117	0.9883	1	1.0234	1	0.9609	1.0117	1	0.9766	1.0117	-0.2197	-0.2197	-0.2197	-0.2197	-0.2197	-0.001	-0.001	-0.0021	-0.001	-0.001	0.0879	0.0879	0.0115	0.0115	0.0115	0.0115	0.0104	21.3	21.4	16	13.4	31	DISENGD	OFF	33.9258	33.9258	34.1895	34.1895	-0.2656	-4.76	-4.94	-4.41	-4.38	-4.36	-4.06	-0.125	机场5	机场68	-0.125	273120
4	8	10:36:01	61	-3	-8	30	19	DOWN	FALSE	FALSE	FALSE	FALSE	FALSE	1.0117	1.0078	0.9844	0.9414	1.0117	1	0.9961	1	0.9883	0.9883	-0.2197	-0.2197	-0.2197	-0.2197	-0.2197	-0.001	-0.001	-0.001	-0.001	-0.001	0.0879	0.0879	0.0115	0.0115	0.0115	0.0115	0.0115	21.3	21.4	15.9	13.4	30.875	DISENGD	OFF	33.9258	33.9258	34.1895	34.1895	-0.2656	-3.66	-3.65	-4.88	-4.21	-4.96	-3.89	-0.0625	机场5	机场68	-0.0625	273120
4	8	10:36:02	61	-7	-8	30	19.25	DOWN	FALSE	FALSE	FALSE	FALSE	FALSE	1.0156	0.9961	0.9883	0.9883	1	0.9883	1.0352	0.9531	1.0156	1.0156	-0.2197	-0.2197	-0.2197	-0.2197	-0.2197	-0.001	-0.001	-0.001	-0.001	-0.001	0.0879	0.0879	0.0115	0.0115	0.0115	0.0115	0.0115	21.3	21.4	15.9	13.4	30.75	DISENGD	OFF	33.9258	33.9258	34.1895	34.1895	-0.2656	-3.51	-3.48	-4.44	-2.65	-3.82	-1.79	-0.125	机场5	机场68	-0.125	273120
4	8	10:36:03	61	-8	-8	30	19.25	DOWN	FALSE	FALSE	FALSE	FALSE	FALSE	0.9805	0.9844	0.9688	1.0352	0.9883	1.0039	0.9727	1	1.0117	1.0234	-0.2197	-0.2197	-0.2197	-0.2197	-0.2197	-0.0021	-0.001	-0.001	-0.001	-0.001	0.0879	0.1758	0.0115	0.0115	0.0115	0.0115	0.0115	21.3	21.4	15.8	13.4	30.625	DISENGD	OFF	33.9258	33.9258	34.1895	34.1895	-0.2617	-3.44	-3.64	-4.54	-1.57	-4.01	-0.89	-0.1875	机场5	机场68	-0.1875	273120
4	8	10:36:04	61	-6	-8	30	19.25	DOWN	FALSE	FALSE	FALSE	FALSE	FALSE	0.9922	0.9922	0.9766	0.9922	0.9922	1.0195	1	1.0156	0.9922	1.0039	-0.2197	-0.2637	-0.2637	-0.2637	-0.2197	-0.001	-0.001	-0.001	-0.001	-0.0021	0.0879	0.0879	0.0115	0.0115	0.0115	0.0115	0.0115	21.3	21.4	15.7	13.4	30.75	DISENGD	OFF	33.9258	33.9258	34.1895	34.1895	-0.2617	-3.77	-3.99	-4.83	-0.78	-2.64	-1.91	0.0625	机场5	机场68	0.0625	273120
4	8	10:36:05	61	-4	-8	30	18.75	DOWN	FALSE	FALSE	FALSE	FALSE	FALSE	0.9609	1.0352	0.9648	1.0352	1.0117	0.9844	1.0117	1.0039	0.9727	1.0313	-0.2197	-0.2197	-0.2197	-0.2197	-0.2197	-0.001	-0.0021	-0.001	-0.001	-0.0021	0.0879	0.0879	0.0115	0.0115	0.0115	0.0115	0.0115	21.4	21.4	15.6	13	31.25	DISENGD	OFF	33.9258	33.9258	34.1895	34.1895	-0.2812	-4.71	-4.76	-4.77	-1.75	-1.96	-3.84	0.0625	机场5	机场68	0.0625	273120
4	8	10:36:06	61	-2	-8	30	18	DOWN	FALSE	FALSE	FALSE	FALSE	FALSE	0.9961	0.9883	0.9883	1	0.9961	1.0195	0.9766	1.0039	0.9961	1	-0.2197	-0.2197	-0.2197	-0.2197	-0.2197	-0.001	-0.001	-0.001	-0.001	-0.001	0.0879	0.0879	0.0115	0.0115	0.0115	0.0115	0.0115	21.3	21.4	15.7	13	31.875	DISENGD	OFF	33.9258	33.9258	34.1895	34.1895	-0.2812	-4.5	-4.18	-4.32	-0.56	-3.04	-1.82	0.0625	机场5	机场68	0.0625	273120
4	8	10:36:07	61	0	-8	30	17.25	DOWN	FALSE	FALSE	FALSE	FALSE	FALSE	1.0352	0.9922	0.9844	1	0.9961	1.0273	0.9883	1.0117	1.0039	0.9883	-0.2197	-0.2197	-0.2197	-0.2197	-0.2197	-0.001	-0.001	-0.001	-0.0021	-0.001	0.0879	0.0879	0.0125	0.0115	0.0115	0.0115	0.0115	21.3	21.4	15.7	13	32.75	DISENGD	OFF	33.9258	33.9258	34.1895	34.1895	-0.2617	-3.69	-3.7	-3.79	-2.22	-4.16	-1.61	0	机场5	机场68	0	273120
4	8	10:36:08	61	1	-8	30	16.25	DOWN	FALSE	FALSE	FALSE	FALSE	FALSE	1.0078	0.9961	0.9883	1	1.0117	0.9922	0.9727	1.0039	0.9766	0.9844	-0.2197	-0.2197	-0.2197	-0.2197	-0.2197	-0.001	-0.001	-0.001	-0.001	-0.001	0.0879	0.0879	0.0115	0.0115	0.0115	0.0115	0.0115	21.3	21.4	15.7	13.4	33.625	DISENGD	OFF	33.9258	33.9258	34.1895	34.1895	-0.2617	-3.09	-2.91	-4.06	-4.2	-4.67	-4.26	0	机场5	机场68	0	273120
4	8	10:36:09	61	1	-8	30	16.25	DOWN	FALSE	FALSE	FALSE	FALSE	FALSE	0.9883	1.0078	1.0078	1.0195	0.9844	0.9961	0.9688	1.0156	1.0156	0.9883	-0.2197	-0.2197	-0.1758	-0.2197	-0.2197	-0.0021	-0.001	-0.001	-0.001	-0.001	0	0.0879	0.0115	0.0115	0.0115	0.0115	0.0115	21.3	21.4	15.7	13	33.75	DISENGD	OFF	33.9258	33.9258	34.1895	34.1895	-0.2695	-3.87	-3.82	-3.58	-2.48	-1.42	-3.03	0	机场5	机场68	0	273120
4	8	10:36:10	61	1	-8	30	15.75	DOWN	FALSE	FALSE	FALSE	FALSE	FALSE	1.0039	0.9883	1.0078	0.9844	0.9883	1	0.9844	1.0078	1.0117	0.9922	-0.2197	-0.2197	-0.2197	-0.2197	-0.2197	-0.001	-0.001	-0.001	-0.001	-0.001	0	0.0879	0.0125	0.0115	0.0115	0.0115	0.0115	21.3	21.4	15.7	13	34	DISENGD	OFF	33.9697	33.9697	34.1895	34.1895	-0.2695	-1.67	-1.89	-4.02	-3.35	-4.28	-2.94	-0.125	机场5	机场68	-0.125	273120
4	8	10:36:11	61	1	-8	30	15.5	DOWN	FALSE	FALSE	FALSE	FALSE	FALSE	0.9922	1.0117	0.9961	1.0117	0.9922	0.9922	0.9844	1.0195	1	0.9727	-0.2197	-0.2197	-0.2197	-0.2637	-0.2637	-0.001	-0.001	-0.001	-0.001	-0.0021	0	0	0.0115	0.0115	0.0115	0.0115	0.0115	21.3	21.4	15.8	13	34.375	DISENGD	OFF	33.9697	33.9697	34.1895	34.1895	-0.2734	-3.91	-3.87	-4.27	-3.85	-3.95	-4.25	-0.0625	机场5	机场68	-0.0625	273120
4	8	10:36:12	61	0	-8	30	15.5	DOWN	FALSE	FALSE	FALSE	FALSE	FALSE	0.9922	1.0156	1	0.9844	1.0156	1.0078	0.9805	0.9844	1	0.9805	-0.2637	-0.2637	-0.2637	-0.3076	-0.3076	-0.001	-0.001	-0.001	-0.001	-0.001	0	0	0.0115	0.0115	0.0115	0.0115	0.0115	21.3	21.4	15.9	13.4	34.5	DISENGD	OFF	34.0137	34.0137	34.1895	34.1895	-0.2734	-2.89	-3.19	-4.69	-4.05	-4.58	-3.44	0.0625	机场5	机场68	0.0625	273120
4	8	10:36:13	61	0	-8	30	15.5	DOWN	FALSE	FALSE	FALSE	FALSE	FALSE	1.0078	0.9961	1.0039	1.0117	1.0117	1.0039	0.9922	0.9922	0.957	0.9961	-0.3076	-0.3076	-0.3076	-0.3516	-0.3516	-0.001	-0.001	-0.001	-0.001	-0.001	0	0	0.0115	0.0115	0.0115	0.0115	0.0115	21.3	21.4	15.9	13.4	34.5	DISENGD	OFF	34.0137	34.0137	34.1895	34.1895	-0.2676	-3.73	-3.98	-4.56	-3.12	-3.91	-3.81	0	机场5	机场68	0	273120
4	8	10:36:14	61	0	-8	30	15.5	DOWN	FALSE	FALSE	FALSE	FALSE	FALSE	0.9727	1.0117	0.9531	0.9727	0.9688	1.0117	0.9922	1.0313	0.957	1.0156	-0.3516	-0.3955	-0.3955	-0.3955	-0.4395	-0.001	-0.001	-0.001	-0.001	-0.001	0.0879	0.0879	0.0115	0.0115	0.0115	0.0115	0.0115	21.3	21.4	16	13.4	34.375	DISENGD	OFF	33.9697	33.9697	34.1895	34.1895	-0.2676	-4.48	-4.48	-4.43	-3.93	-3.97	-3.42	-0.1875	机场5	机场68	-0.1875	273120
4	8	10:36:15	62	-8	-8	30	15.75	DOWN	FALSE	FALSE	FALSE	FALSE	FALSE	0.9961	1	0.9844	1	0.9609	1.0195	0.9961	1.043	1.0156	1.0156	-0.3955	-0.3955	-0.3516	-0.3516	-0.3076	-0.001	-0.001	-0.001	-0.001	-0.001	0	0	0.0115	0.0115	0.0115	0.0115	0.0115	21.4	21.4	16	13.4	34.25	DISENGD	OFF	33.9697	33.9697	34.1895	34.1895	-0.2715	-4.05	-3.92	-4.59	-3.57	-3.92	-4.99	0.125	机场5	机场68	0.125	273120
4	8	10:36:16	61	-6	-8	30	16	DOWN	FALSE	FALSE	FALSE	FALSE	FALSE	0.9844	0.9844	1.0039	1.0313	1.0156	0.9883	0.9922	1	0.9922	1.0195	-0.3516	-0.3516	-0.3516	-0.3516	-0.3516	-0.001	-0.001	-0.001	-0.001	-0.001	0	0	0.0115	0.0115	0.0115	0.0115	0.0115	21.3	21.4	16.1	13.4	34	DISENGD	OFF	33.9697	33.9697	34.1895	34.1895	-0.2715	-4.24	-3.99	-3.59	-3.74	-5.05	-4.04	-0.0625	机场5	机场68	-0.0625	273120
4	8	10:36:17	61	-2	-8	30	16	DOWN	FALSE	FALSE	FALSE	FALSE	FALSE	1.0469	1.0234	1.0039	0.9922	1.0039	1.0195	1.0039	1.0234	0.9648	0.9648	-0.3516	-0.3516	-0.3955	-0.3955	-0.3955	-0.001	-0.001	-0.001	-0.001	-0.001	0.0879	0	0.0115	0.0115	0.0115	0.0115	0.0115	21.4	21.4	16.1	13.4	33.875	DISENGD	OFF	33.9697	33.9697	34.1895	34.1895	-0.2656	-2.85	-3	-4.76	-3.13	-4.04	-3.25	-0.0625	机场5	机场68	-0.0625	273120
4	8	10:36:18	61	2	-8	30	16.25	DOWN	FALSE	FALSE	FALSE	FALSE	FALSE	1.0273	1	0.9961	0.9883	1.0273	1.0273	0.9609	0.9805	0.9844	0.9922	-0.3516	-0.3516	-0.3516	-0.3516	-0.3516	-0.0021	-0.001	-0.001	-0.001	-0.001	0.0879	0	0.0115	0.0115	0.0115	0.0115	0.0115	21.4	21.4	16.2	13.7	33.625	DISENGD	OFF	33.9697	33.9697	34.1895	34.1895	-0.2656	-4.45	-4.22	-4.83	-4.61	-4.51	-4.5	-0.0625	机场5	机场68	-0.0625	273120
4	8	10:36:19	61	4	-8	30	16.5	DOWN	FALSE	FALSE	FALSE	FALSE	FALSE	1.0234	0.9727	1	0.9844	1.0273	0.9961	1.0156	0.9883	0.9961	0.9609	-0.3516	-0.3516	-0.3516	-0.3516	-0.3516	-0.001	-0.001	-0.001	-0.001	-0.001	0.0879	0.0879	0.0115	0.0115	0.0115	0.0115	0.0115	21.4	21.3	16.2	13.4	33.5	DISENGD	OFF	33.9697	33.9697	34.1895	34.1895	-0.2637	-4.01	-4.04	-4.42	-4.44	-4.05	-4.2	0.0625	机场5	机场68	0.0625	273120
4	8	10:36:20	61	4	-8	30	16.5	DOWN	FALSE	FALSE	FALSE	FALSE	FALSE	1.0078	1.0352	1.0195	0.957	1.0039	0.9961	1.0156	0.9609	0.9805	1.0234	-0.3516	-0.3516	-0.3516	-0.3516	-0.3516	-0.001	-0.001	-0.001	-0.001	-0.001	0.0879	0.0879	0.0115	0.0115	0.0115	0.0115	0.0115	21.3	21.4	16.1	13.7	33.5	DISENGD	OFF	33.9697	33.9697	34.1895	34.1895	-0.2637	-4.13	-3.94	-3.73	-4.62	-4.47	-4.63	-0.125	机场5	机场68	-0.125	273120
4	8	10:36:21	61	3	-8	30	16.25	DOWN	FALSE	FALSE	FALSE	FALSE	FALSE	0.9844	0.9805	0.9844	1.0078	1.0156	0.9883	1.0156	0.9453	1.0078	1	-0.3516	-0.3516	-0.3516	-0.3516	-0.3516	-0.001	-0.001	-0.001	-0.001	-0.001	0.0879	0.0879	0.0115	0.0115	0.0115	0.0115	0.0115	21.3	21.4	15.9	13.7	33.625	DISENGD	OFF	33.9697	33.9697	34.1895	34.1895	-0.2617	-3.67	-3.54	-3.36	-3.57	-4.85	-3.65	0.125	机场5	机场68	0.125	273120
4	8	10:36:22	61	2	-8	30	16.5	DOWN	FALSE	FALSE	FALSE	FALSE	FALSE	1.0117	0.9766	1.0273	1.0117	0.9922	0.9727	1.0078	1.0039	0.9883	1.0273	-0.3516	-0.3516	-0.3516	-0.3516	-0.3516	-0.001	-0.0021	-0.001	-0.001	-0.001	0.0879	0.0879	0.0115	0.0115	0.0115	0.0115	0.0115	21.3	21.4	15.7	13.4	33.5	DISENGD	OFF	33.9697	33.9697	34.1895	34.1895	-0.2617	-1.96	-1.92	-3.14	-3.54	-4.19	-4.43	0	机场5	机场68	0	273120
4	8	10:36:23	61	1	-8	30	16.5	DOWN	FALSE	FALSE	FALSE	FALSE	FALSE	1.0117	0.9844	0.9805	0.9844	1.0156	1.0156	1.0117	1.0078	0.9844	0.9727	-0.3516	-0.3516	-0.3516	-0.3516	-0.3516	-0.001	-0.001	-0.001	-0.001	-0.001	0.0879	0.0879	0.0115	0.0115	0.0115	0.0115	0.0115	21.3	21.4	15.6	13	33.375	DISENGD	OFF	33.9697	33.9697	34.1895	34.1895	-0.2852	-3.12	-2.92	-3.83	-3.4	-2.43	-3.87	-0.0625	机场5	机场68	-0.0625	273120
4	8	10:36:24	61	0	-8	30	16.75	DOWN	FALSE	FALSE	FALSE	FALSE	FALSE	0.9961	0.9922	0.9844	0.9961	1	1	0.9922	1.0117	1.0117	0.9844	-0.3516	-0.3516	-0.3516	-0.3516	-0.3516	-0.001	-0.001	-0.001	-0.001	-0.0021	0.0879	0.0879	0.0115	0.0115	0.0115	0.0115	0.0115	21.3	21.4	15.6	12.7	33.25	DISENGD	OFF	33.9697	33.9697	34.1895	34.1895	-0.2852	-3.99	-3.96	-4.53	-4.02	-4.42	-3.94	0	机场5	机场68	0	273120
4	8	10:36:25	60	7	-8	30	16.75	DOWN	FALSE	FALSE	FALSE	FALSE	FALSE	1	0.9609	1.0313	1.0117	0.9766	0.9922	0.9805	1.0195	1.0195	1.0195	-0.3516	-0.3516	-0.3516	-0.3516	-0.3516	-0.001	-0.001	-0.001	-0.001	-0.001	0.0879	0.0879	0.0115	0.0115	0.0115	0.0115	0.0115	21.3	21.4	15.6	13	33.25	DISENGD	OFF	33.9258	33.9258	34.1895	34.1895	-0.2754	-4.35	-4.28	-3.75	-2.17	-4.49	-2.41	-0.0625	机场5	机场68	-0.0625	273120
4	8	10:36:26	60	13	-8	30	16.75	DOWN	FALSE	FALSE	FALSE	FALSE	FALSE	1.0352	0.9844	1.0078	0.9727	1.0078	1.0234	1.0273	1.0117	0.9844	0.957	-0.3516	-0.3516	-0.3516	-0.3516	-0.3516	-0.001	-0.001	-0.001	-0.001	-0.001	0.0879	0.0879	0.0115	0.0115	0.0115	0.0115	0.0115	21.3	21.4	15.7	13	33.125	DISENGD	OFF	33.9258	33.9258	34.1895	34.1895	-0.2754	-3.41	-3.43	-4.72	-3.89	-4.5	-4.31	0.0625	机场5	机场68	0.0625	273120
4	8	10:36:27	60	15	-8	30	17	DOWN	FALSE	FALSE	FALSE	FALSE	FALSE	0.9922	1	0.9844	1	1.0391	0.9844	0.9844	0.9883	0.9883	1	-0.3076	-0.3076	-0.3076	-0.3076	-0.3076	-0.001	-0.001	-0.001	-0.001	-0.001	0.0879	0.0879	0.0115	0.0115	0.0115	0.0115	0.0115	21.3	21.4	15.8	13	32.875	DISENGD	OFF	33.9258	33.9258	34.1895	34.1895	-0.2734	-4.59	-4.49	-4.19	-4.52	-5.01	-4.64	-0.0625	机场5	机场68	-0.0625	273120
4	8	10:36:28	61	5	-8	30	17.25	DOWN	FALSE	FALSE	FALSE	FALSE	FALSE	0.9805	0.9844	1.0078	1.0156	0.9961	0.9805	1.0117	1.0156	0.9883	1.0039	-0.3076	-0.3076	-0.3076	-0.3076	-0.3076	-0.001	-0.001	-0.001	-0.001	-0.001	0.0879	0	0.0115	0.0115	0.0115	0.0115	0.0115	21.2	21.4	15.9	13	32.75	DISENGD	OFF	33.9258	33.9258	34.1895	34.1895	-0.2734	-3.84	-3.67	-4.4	1.8	-4.7	0	-0.25	机场5	机场68	-0.25	273120
4	8	10:36:29	60	3	-8	30	17.5	DOWN	FALSE	FALSE	FALSE	FALSE	FALSE	0.9883	1.0078	1.0156	0.9531	0.957	1.0352	1.0117	0.9961	1.0234	0.9883	-0.3076	-0.3076	-0.3076	-0.3076	-0.3076	-0.001	-0.001	-0.001	-0.001	-0.001	0	0.0879	0.0115	0.0115	0.0115	0.0115	0.0115	21.2	21.4	16	13	32.5	DISENGD	OFF	33.9258	33.9258	34.1895	34.1895	-0.2734	-4.57	-4.54	-4.11	-2.42	-2.65	-3.31	0.0625	机场5	机场68	0.0625	273120
4	8	10:36:30	61	-5	-8	30	17.5	DOWN	FALSE	FALSE	FALSE	FALSE	FALSE	1.0195	1.0117	1.0078	0.9492	0.9766	1.0273	0.9961	1	1.0078	1.0234	-0.3076	-0.3076	-0.3076	-0.3076	-0.3076	-0.001	-0.001	-0.001	-0.0021	-0.001	0	0.0879	0.0115	0.0115	0.0115	0.0115	0.0115	21.4	21.4	16	13.4	32.375	DISENGD	OFF	33.9258	33.9258	34.1895	34.1895	-0.2734	-3.43	-3.47	-4.42	-4.08	-3.69	-4.11	-0.125	机场5	机场68	-0.125	273120
4	8	10:36:31	61	-10	-8	30	17.75	DOWN	FALSE	FALSE	FALSE	FALSE	FALSE	1.0352	0.9844	1.0078	0.9648	0.9922	1	0.9961	0.9922	1.0313	1.0078	-0.3076	-0.3076	-0.3076	-0.3076	-0.3076	-0.001	-0.001	-0.001	-0.001	-0.001	0.0879	0.0879	0.0115	0.0115	0.0115	0.0115	0.0115	21.3	21.4	16.1	13.4	32.25	DISENGD	OFF	33.9258	33.9258	34.1895	34.1895	-0.2695	-4.33	-4.3	-3.96	-3.34	-4.25	-4.03	0	机场5	机场68	0	273120
4	8	10:36:32	61	-12	-8	30	18	DOWN	FALSE	FALSE	FALSE	FALSE	FALSE	0.9727	1.0078	0.9727	0.9922	0.9922	1.0234	0.9844	0.9844	1.0273	0.9961	-0.3076	-0.3076	-0.3076	-0.3076	-0.3076	-0.001	-0.001	-0.001	-0.0021	-0.001	0.0879	0.0879	0.0115	0.0115	0.0115	0.0115	0.0115	21.3	21.4	16.2	13.4	32.125	DISENGD	OFF	33.9258	33.9258	34.1895	34.1895	-0.2695	-3.49	-3.46	-4.48	-2.77	-2.08	-3.49	-0.0625	机场5	机场68	-0.0625	273120
4	8	10:36:33	60	-3	-8	30	18	DOWN	FALSE	FALSE	FALSE	FALSE	FALSE	0.9453	1	1.0078	1.0313	0.9648	1.0039	0.9961	1.0117	1.0117	1.0352	-0.3076	-0.3076	-0.3076	-0.3076	-0.3076	-0.001	-0.001	-0.001	-0.001	-0.001	0.0879	0.0879	0.0115	0.0115	0.0115	0.0115	0.0115	21.3	21.4	16.3	13.4	31.875	DISENGD	OFF	33.9258	33.9258	34.1895	34.1895	-0.2695	-3.89	-3.73	-4.48	-4.81	-4.53	-5.04	-0.125	机场5	机场68	-0.125	273120
4	8	10:36:34	60	7	-8	30	18.25	DOWN	FALSE	FALSE	FALSE	FALSE	FALSE	0.9883	1.0039	1.0273	1.0352	1.0078	0.9844	1.0078	0.9961	1	1.0078	-0.3076	-0.3076	-0.3076	-0.3076	-0.3076	-0.001	-0.001	-0.001	-0.001	-0.001	0.0879	0.0879	0.0115	0.0115	0.0115	0.0115	0.0115	21.3	21.4	16.3	13.7	31.75	DISENGD	OFF	33.9258	33.9258	34.1895	34.1895	-0.2695	-4.74	-4.64	-4.33	-3.97	-3.97	-4.03	-0.0625	机场5	机场68	-0.0625	273120
4	8	10:36:35	60	12	-8	30	18.5	DOWN	FALSE	FALSE	FALSE	FALSE	FALSE	0.9805	1.0313	1	1	0.9766	1	1.0117	0.9805	0.9961	1.0234	-0.3076	-0.3076	-0.3076	-0.3076	-0.3076	-0.001	-0.001	-0.001	-0.001	-0.001	0.0879	0.0879	0.0115	0.0115	0.0115	0.0115	0.0115	21.3	21.4	16.2	13.7	31.5	DISENGD	OFF	33.9258	33.9258	34.1455	34.1455	-0.2637	-3.66	-3.66	-4.46	-3.06	-4.46	-2.9	-0.125	机场5	机场68	-0.125	273120
4	8	10:36:36	60	12	-8	30	18.5	DOWN	FALSE	FALSE	FALSE	FALSE	FALSE	0.9922	1.0273	0.9883	1.0039	0.9883	1.0195	0.9844	0.9922	0.9766	0.9883	-0.3076	-0.3076	-0.3076	-0.3076	-0.3076	-0.001	-0.001	-0.001	-0.001	-0.001	0.0879	0.0879	0.0115	0.0115	0.0115	0.0115	0.0115	21.3	21.4	16.1	13.7	31.375	DISENGD	OFF	33.9258	33.9258	34.1455	34.1455	-0.2637	-4.22	-4.07	-4.29	-3.38	-0.77	-3.66	-0.0625	机场5	机场68	-0.0625	273120
4	8	10:36:37	60	10	-8	30	18.75	DOWN	FALSE	FALSE	FALSE	FALSE	FALSE	1.0273	0.9961	1.0195	0.9766	0.9727	0.9883	1.0156	0.9727	1.0234	1.0195	-0.3076	-0.3076	-0.3076	-0.3076	-0.3076	-0.001	-0.001	-0.001	-0.001	-0.001	0.0879	0.0879	0.0115	0.0115	0.0115	0.0115	0.0115	21.3	21.4	15.9	13.4	31.25	DISENGD	OFF	33.9258	33.9258	34.1895	34.1895	-0.2656	-4.29	-4.33	-3.87	-4.47	5.16	-4.43	-0.0625	机场5	机场68	-0.0625	273120
4	8	10:36:38	61	-2	-8	30	18.75	DOWN	FALSE	FALSE	FALSE	FALSE	FALSE	0.9922	0.9922	1.0039	0.9922	0.9922	1.0078	0.9688	0.9883	1.0078	1.0117	-0.3076	-0.3076	-0.3076	-0.3076	-0.3076	-0.001	-0.001	-0.001	-0.001	-0.0021	0.0879	0.0879	0.0115	0.0115	0.0115	0.0115	0.0115	21.3	21.4	15.8	13.4	31.125	DISENGD	OFF	33.9258	33.9258	34.1895	34.1895	-0.2656	-4.02	-3.96	-4.26	-3.41	-4.4	-3.66	-0.0625	机场5	机场68	-0.0625	273120
4	8	10:36:39	60	-4	-8	30	19	DOWN	FALSE	FALSE	FALSE	FALSE	FALSE	0.9883	1.0156	0.9922	0.9727	0.9805	0.9922	1.0273	0.9727	0.9922	1.0078	-0.3076	-0.3516	-0.3516	-0.3516	-0.3076	-0.001	-0.001	-0.001	-0.001	-0.001	0.0879	0.0879	0.0115	0.0115	0.0115	0.0115	0.0115	21.3	21.4	15.6	13	30.875	DISENGD	OFF	33.9258	33.9258	34.1895	34.1895	-0.2695	-4.36	-4.34	-3.67	-4.51	-3.74	-4.41	0	机场5	机场68	0	273120
4	8	10:36:40	60	-2	-8	30	19.25	DOWN	FALSE	FALSE	FALSE	FALSE	FALSE	0.9727	1.0156	0.9883	1.0156	0.9961	0.9727	0.9805	0.9922	0.9883	1.0195	-0.3516	-0.3516	-0.3516	-0.3516	-0.3516	-0.001	-0.001	-0.001	-0.001	-0.001	0.1758	0.1758	0.0115	0.0115	0.0115	0.0115	0.0115	21.3	21.4	15.6	13	30.75	DISENGD	OFF	33.9697	33.9697	34.1895	34.1895	-0.2695	-4	-4.01	-4.12	-3.78	-2.44	-4.03	-0.0625	机场5	机场68	-0.0625	273120
4	8	10:36:41	60	1	-8	30	19.25	DOWN	FALSE	FALSE	FALSE	FALSE	FALSE	0.9961	1.0039	0.9727	1.0117	1.0117	1.0313	0.9883	1.0156	0.9844	1.0039	-0.3516	-0.3516	-0.3516	-0.3076	-0.3076	-0.001	-0.001	-0.001	-0.001	-0.001	0.2637	0.1758	0.0115	0.0115	0.0115	0.0115	0.0115	21.3	21.4	15.6	13	30.625	DISENGD	OFF	33.9697	33.9697	34.1895	34.1895	-0.2695	-3.91	-3.83	-4.47	-4.51	5.16	-4.51	0	机场5	机场68	0	273120
4	8	10:36:42	60	3	-8	30	19.5	DOWN	FALSE	FALSE	FALSE	FALSE	FALSE	1.0078	1.0234	1.0156	0.9766	1.0117	0.9922	0.9766	0.9883	0.9844	1.0313	-0.3076	-0.3076	-0.3076	-0.3076	-0.3076	-0.001	-0.001	-0.001	-0.001	-0.001	0.2637	0.2637	0.0115	0.0115	0.0115	0.0115	0.0115	21.3	21.4	15.7	13	30.375	DISENGD	OFF	33.9697	33.9697	34.1895	34.1895	-0.2695	-3.75	-3.82	-4.33	-3.68	-4.66	-4	-0.0625	机场5	机场68	-0.0625	273120
4	8	10:36:43	60	3	-8	30	19.75	DOWN	FALSE	FALSE	FALSE	FALSE	FALSE	0.9766	1.0352	0.9961	1.0039	0.9688	0.9648	0.9648	0.9648	1.0195	1.0156	-0.3516	-0.3516	-0.3516	-0.3516	-0.3516	-0.001	-0.0021	-0.001	-0.001	-0.001	0.0879	0.1758	0.0115	0.0115	0.0115	0.0115	0.0115	21.3	21.4	15.8	13	30.25	DISENGD	OFF	33.9697	33.9697	34.1895	34.1895	-0.2695	-4.15	-4.03	-4.13	-2.53	-4.3	-2.02	-0.125	机场5	机场68	-0.125	273120
4	8	10:36:44	60	3	-8	30	19.25	DOWN	FALSE	FALSE	FALSE	FALSE	FALSE	1.0234	0.9805	0.9648	1.0156	1.0156	1.0195	0.9727	1.0156	0.9883	0.9961	-0.3516	-0.3516	-0.3516	-0.3516	-0.3516	-0.001	-0.001	-0.001	-0.001	-0.0021	0.2637	0.2637	0.0115	0.0115	0.0115	0.0115	0.0115	21.3	21.4	15.8	13	30.625	DISENGD	OFF	33.9697	33.9697	34.1895	34.1895	-0.2695	-4.29	-4.32	-3.87	-3.26	-2.92	-3.19	0	机场5	机场68	0	273120
4	8	10:36:45	60	2	-8	30	18.75	DOWN	FALSE	FALSE	FALSE	FALSE	FALSE	1	1.0313	0.9844	0.9922	0.9922	1.0273	0.9883	1.0313	0.9805	0.9922	-0.3516	-0.3516	-0.3516	-0.3516	-0.3076	-0.001	-0.0021	-0.0021	-0.001	-0.0021	0.1758	0.1758	0.0115	0.0115	0.0115	0.0115	0.0115	21.3	21.4	15.9	13	31.125	DISENGD	OFF	33.9697	33.9697	34.1895	34.1895	-0.2695	-4.24	-4.2	-4.08	-1.59	0.27	-2.72	-0.0625	机场5	机场68	-0.0625	273120
4	8	10:36:46	60	1	-8	30	18.75	DOWN	FALSE	FALSE	FALSE	FALSE	FALSE	0.9883	0.9961	1.0195	1.0117	0.9922	1.0039	0.9766	0.9766	1.0156	1	-0.3076	-0.3076	-0.3076	-0.3076	-0.3076	-0.001	-0.001	-0.001	-0.001	-0.001	0.1758	0.1758	0.0115	0.0115	0.0115	0.0115	0.0115	21.3	21.4	15.9	13	31.25	DISENGD	OFF	33.9697	33.9697	34.1895	34.1895	-0.2695	-4.15	-4.18	-4.08	-1.22	-0.28	-2.54	0.0625	机场5	机场68	0.0625	273120
4	8	10:36:47	60	0	-8	30	18.75	DOWN	FALSE	FALSE	FALSE	FALSE	FALSE	1.0195	0.9805	1.0039	0.9961	1.0391	0.9805	1.0078	0.9805	0.9961	0.9648	-0.3076	-0.3076	-0.3076	-0.3076	-0.2637	-0.001	-0.001	-0.001	-0.001	-0.001	0.1758	0.1758	0.0115	0.0115	0.0115	0.0115	0.0115	21.3	21.4	15.9	13	31.125	DISENGD	OFF	33.9697	33.9697	34.1895	34.1895	-0.2695	-3.58	-3.5	-4.04	-1.08	-0.04	-2.32	0	机场5	机场68	0	273120
4	8	10:36:48	60	0	-8	30	18.75	DOWN	FALSE	FALSE	FALSE	FALSE	FALSE	0.9883	1.0195	1.0352	1	0.9844	0.9922	0.9961	0.9805	0.9844	1.0117	-0.3076	-0.2637	-0.3076	-0.2637	-0.3076	-0.001	-0.001	-0.001	-0.0021	-0.001	0.1758	0.1758	0.0115	0.0115	0.0115	0.0115	0.0115	21.3	21.4	16	13.4	31.125	DISENGD	OFF	33.9697	33.9697	34.1895	34.1895	-0.2695	-3.15	-3.17	-3.85	-0.43	-0.29	-0.98	-0.3125	机场5	机场68	-0.3125	273120
4	8	10:36:49	60	0	-8	30	18.75	DOWN	FALSE	FALSE	FALSE	FALSE	FALSE	1.0195	1.0039	0.9766	0.9609	1.0117	1.0313	1.0039	0.9727	1.0352	0.9883	-0.3076	-0.3076	-0.3076	-0.3076	-0.3076	-0.001	-0.001	-0.001	-0.001	-0.001	0.1758	0.1758	0.0115	0.0115	0.0115	0.0115	0.0115	21.3	21.4	16	13.4	31.125	DISENGD	OFF	33.9697	33.9697	34.1895	34.1895	-0.2695	-3.5	-3.6	-3	-0.49	-0.24	-1.42	-0.0625	机场5	机场68	-0.0625	273120
4	8	10:36:50	60	0	-8	30	19	DOWN	FALSE	FALSE	FALSE	FALSE	FALSE	0.9805	1.0078	0.9766	1.0352	0.9844	0.9922	0.9766	1.0117	0.9961	0.9922	-0.3076	-0.3076	-0.3076	-0.3076	-0.3076	-0.001	-0.001	-0.001	-0.001	-0.001	0.0879	0.0879	0.0115	0.0115	0.0115	0.0115	0.0115	21.3	21.4	16.1	13.4	31	DISENGD	OFF	33.9697	33.9697	34.1895	34.1895	-0.2695	-3.35	-3.33	-3.5	-0.42	0.12	-1.23	0.0625	机场5	机场68	0.0625	273120
4	8	10:36:51	60	0	-8	30	19	DOWN	FALSE	FALSE	FALSE	FALSE	FALSE	1.0078	1.0078	0.9961	0.9609	0.9922	0.9961	1.0117	1.0156	1.0117	0.9922	-0.3076	-0.3076	-0.3076	-0.3076	-0.3076	-0.001	-0.001	-0.001	-0.001	-0.0021	0.0879	0.0879	0.0115	0.0115	0.0115	0.0115	0.0115	21.3	21.4	16.1	13.4	30.875	DISENGD	OFF	33.9697	33.9697	34.1895	34.1895	-0.2695	-3.38	-3.42	-3.61	-1.2	0.51	-2.55	0	机场5	机场68	0	273120
4	8	10:36:52	60	0	-8	30	19.25	DOWN	FALSE	FALSE	FALSE	FALSE	FALSE	0.9609	1.0195	0.9922	0.9961	1	0.9883	1.0078	0.9648	1.043	1.0352	-0.3076	-0.3076	-0.3076	-0.3076	-0.3516	-0.001	-0.001	-0.001	-0.001	-0.001	0.0879	0.0879	0.0115	0.0115	0.0115	0.0115	0.0115	21.3	21.4	16.2	13.4	30.75	DISENGD	OFF	33.9697	33.9697	34.1895	34.1895	-0.2695	-3.34	-3.25	-3.67	-4.2	0.6	-4.06	-0.125	机场5	机场68	-0.125	273120
